-> $GPRMC,000022.67,A,5050.702838,N,00044.765101,W,1.5,95.9,230418,4.0,W,A,S*70
-> $GCHDT,100.82,T*1D
-> $GCROT,176.81,A*1B
-> $CCHPR,104.82,0.00,0.07*70
-> $DYSIG,1.47*70
-> $GCHDT,101.10,T*17
-> $GCROT,177.28,A*19
-> $CCHPR,104.82,-0.00,0.07*5D
-> $GPRMC,000022.90,A,5050.702830,N,00044.764979,W,1.5,96.4,230418,4.0,W,A,S*78
-> $GCHDT,101.28,T*1C
-> $GCROT,177.65,A*10
-> $CCHPR,105.28,0.00,0.07*71
-> $GCHDT,101.60,T*10
-> $GCROT,178.03,A*1F
-> $CCHPR,105.28,0.00,0.07*71
-> $GPRMC,000023.12,A,5050.702819,N,00044.764838,W,1.5,96.9,230418,4.0,W,A,S*71
-> $GCHDT,101.88,T*16
-> $GCROT,178.48,A*10
-> $PXTB,,,*32
-> $GCHDT,102.07,T*12
-> $GCROT,178.79,A*12
-> $CCHPR,105.88,-0.00,0.07*56
-> $CCHPR,105.88,-0.00,0.07*56
-> $GCHDT,102.39,T*1F
-> $GCROT,178.01,A*1D
-> $GPRMC,000023.23,A,5050.702809,N,00044.764706,W,1.5,97.3,230418,4.0,W,A,S*7B
-> $CCHPR,106.53,-0.00,0.07*53
-> $GCHDT,102.67,T*14
-> $GCROT,175.85,A*1C
-> $GCHDT,102.67,T*14
-> $GCROT,175.85,A*1C
-> $GCHDT,102.85,T*18
-> $GCROT,173.86,A*19
-> $CCHPR,106.53,0.00,0.07*7E
-> $GPRMC,000023.50,A,5050.702797,N,00044.764565,W,1.5,97.9,230418,4.0,W,A,S*7A
-> $GCHDT,103.03,T*17
-> $GCROT,171.43,A*12
-> $GCHDT,103.17,T*12
-> $GCROT,169.19,A*14
-> $CCHPR,107.03,-0.00,0.07*57
-> $GCHDT,103.30,T*17
-> $GCROT,166.78,A*1C
-> $GCHDT,103.47,T*17
-> $GCROT,164.24,A*17
-> $CCHPR,107.03,-0.00,0.07*57
-> $GPRMC,000023.71,A,5050.702784,N,00044.764424,W,1.5,98.7,230418,4.0,W,A,S*7E
-> $GCHDT,103.64,T*16
-> $GCROT,160.53,A*13
-> $CCHPR,107.64,-0.00,0.07*56
-> $DYSIG,0.00*72
-> $GCHDT,103.76,T*15
-> $GCROT,157.37,A*15
-> $GCHDT,103.88,T*14
-> $GCROT,154.02,A*10
-> $GCHDT,104.00,T*13
-> $GCROT,150.66,A*16
-> $CCHPR,107.64,-0.00,0.07*56
-> $GPRMC,000023.92,A,5050.702774,N,00044.764324,W,1.5,99.3,230418,4.0,W,A,S*7E
-> $GCHDT,104.12,T*10
-> $GCROT,147.37,A*14
-> $GCHDT,104.23,T*12
-> $GCROT,144.22,A*13
-> $CCHPR,108.12,-0.00,0.06*59
-> $GCHDT,104.38,T*18
-> $GCROT,141.39,A*1C
-> $GCHDT,104.53,T*15
-> $GCROT,138.98,A*19
-> $CCHPR,108.12,-0.00,0.06*59
-> $GPRMC,000024.14,A,5050.702760,N,00044.764196,W,1.5,100.1,230418,4.0,W,A,S*4A
-> $GCHDT,104.64,T*11
-> $GCROT,137.06,A*11
-> $PXTB,,,*32
-> $CCHPR,108.64,-0.00,0.06*58
-> $GCHDT,104.74,T*10
-> $GCROT,135.50,A*10
-> $GCHDT,104.74,T*10
-> $GCROT,135.50,A*10
-> $GCHDT,104.85,T*1E
-> $GCROT,134.09,A*1D
-> $CCHPR,108.64,-0.00,0.06*58
-> $GCHDT,104.99,T*13
-> $GCROT,132.57,A*10
-> $GPRMC,000024.23,A,5050.702745,N,00044.764068,W,1.4,100.8,230418,4.0,W,A,S*41
-> $GCHDT,104.99,T*13
-> $GCROT,132.57,A*10
-> $GCHDT,105.09,T*1B
-> $GCROT,131.64,A*13
-> $CCHPR,109.09,-0.00,0.05*51
-> $GCHDT,105.19,T*1A
-> $GCROT,130.94,A*1D
-> $GCHDT,105.19,T*1A
-> $GCROT,130.94,A*1D
-> $GCHDT,105.29,T*19
-> $GCROT,130.35,A*16
-> $CCHPR,109.09,-0.00,0.05*51
-> $GCHDT,105.29,T*19
-> $GCROT,130.35,A*16
-> $GCHDT,105.40,T*16
-> $GCROT,129.92,A*13
-> $GPRMC,000024.53,A,5050.702730,N,00044.763940,W,1.4,101.4,230418,4.0,W,A,S*4D
-> $GCHDT,105.53,T*14
-> $GCROT,129.36,A*1D
-> $CCHPR,109.53,-0.00,0.05*5E
-> $GCHDT,105.53,T*14
-> $GCROT,129.36,A*1D
-> $GCHDT,105.67,T*13
-> $GCROT,129.04,A*1C
-> $GCHDT,105.80,T*1A
-> $GCROT,128.84,A*15
-> $CCHPR,109.53,-0.00,0.05*5E
-> $GPRMC,000024.71,A,5050.702711,N,00044.763795,W,1.4,101.9,230418,4.0,W,A,S*45
-> $GCHDT,105.90,T*1B
-> $GCROT,128.84,A*15
-> $CCHPR,109.90,-0.00,0.05*51
-> $DYSIG,3.04*75
-> $GCHDT,106.00,T*11
-> $GCROT,128.86,A*17
-> $GCHDT,106.10,T*10
-> $GCROT,128.90,A*10
-> $GCHDT,106.24,T*17
-> $GCROT,129.06,A*1E
-> $CCHPR,109.90,-0.00,0.05*51
-> $GPRMC,000024.92,A,5050.702699,N,00044.763707,W,1.4,102.3,230418,4.0,W,A,S*4B
-> $GCHDT,106.37,T*15
-> $GCROT,129.35,A*1E
-> $CCHPR,110.37,0.00,0.05*79
-> $GCHDT,106.47,T*12
-> $GCROT,129.59,A*14
-> $GCHDT,106.61,T*16
-> $GCROT,129.79,A*16
-> $CCHPR,110.37,-0.00,0.05*54
-> $GCHDT,106.71,T*17
-> $GCROT,130.03,A*13
-> $GPRMC,000025.14,A,5050.702679,N,00044.763563,W,1.4,102.7,230418,4.0,W,A,S*4E
-> $GCHDT,106.84,T*1D
-> $GCROT,130.31,A*12
-> $PXTB,,,*32
-> $CCHPR,110.84,-0.00,0.05*5C
-> $GCHDT,106.94,T*1C
-> $GCROT,130.60,A*16
-> $GCHDT,107.05,T*15
-> $GCROT,130.85,A*1D
-> $CCHPR,110.84,-0.00,0.05*5C
-> $GPRMC,000025.29,A,5050.702660,N,00044.763438,W,1.4,103.1,230418,4.0,W,A,S*40
-> $GCHDT,107.18,T*19
-> $GCROT,131.26,A*15
-> $GCHDT,107.32,T*11
-> $GCROT,131.54,A*10
-> $CCHPR,111.19,-0.00,0.05*59
-> $GCHDT,107.42,T*16
-> $GCROT,131.73,A*15
-> $GCHDT,107.53,T*16
-> $GCROT,131.97,A*1F
-> $CCHPR,111.19,0.00,0.05*74
-> $GPRMC,000025.51,A,5050.702645,N,00044.763333,W,1.4,103.5,230418,4.0,W,A,S*40
-> $GCHDT,107.63,T*15
-> $GCROT,132.25,A*15
-> $GCHDT,107.73,T*14
-> $GCROT,132.49,A*1F
-> $CCHPR,111.63,0.00,0.05*79
-> $GCHDT,107.73,T*14
-> $GCROT,132.49,A*1F
-> $GCHDT,107.98,T*11
-> $GCROT,132.97,A*1C
-> $CCHPR,111.63,-0.00,0.05*54
-> $GPRMC,000025.71,A,5050.702621,N,00044.763181,W,1.4,103.9,230418,4.0,W,A,S*47
-> $GCHDT,108.12,T*1C
-> $GCROT,133.16,A*14
-> $CCHPR,112.12,-0.00,0.05*51
-> $DYSIG,0.69*7D
-> $GCHDT,108.25,T*18
-> $GCROT,133.41,A*16
-> $GCHDT,108.36,T*1A
-> $GCROT,133.43,A*14
-> $CCHPR,112.12,-0.00,0.05*51
-> $GCHDT,108.46,T*1D
-> $GCROT,133.28,A*19
-> $GPRMC,000025.93,A,5050.702605,N,00044.763077,W,1.4,104.2,230418,4.0,W,A,S*49
-> $GCHDT,108.57,T*1D
-> $GCROT,132.82,A*18
-> $CCHPR,112.57,-0.00,0.05*50
-> $GCHDT,108.67,T*1E
-> $GCROT,132.21,A*11
-> $GCHDT,108.81,T*16
-> $GCROT,131.10,A*10
-> $CCHPR,112.57,-0.00,0.05*50
-> $GCHDT,108.91,T*17
-> $GCROT,130.07,A*17
-> $GPRMC,000026.14,A,5050.702585,N,00044.762955,W,1.4,104.6,230418,4.0,W,A,S*42
-> $GCHDT,109.01,T*1F
-> $GCROT,128.76,A*18
-> $PXTB,,,*32
-> $CCHPR,113.01,-0.00,0.05*52
-> $GCHDT,109.11,T*1E
-> $GCROT,127.33,A*16
-> $GCHDT,109.21,T*1D
-> $GCROT,125.72,A*11
-> $CCHPR,113.01,-0.00,0.05*52
-> $GCHDT,109.34,T*19
-> $GCROT,123.46,A*10
-> $GPRMC,000026.34,A,5050.702566,N,00044.762842,W,1.4,105.0,230418,4.0,W,A,S*4D
-> $GCHDT,109.47,T*1D
-> $GCROT,120.92,A*1A
-> $CCHPR,113.47,-0.00,0.05*50
-> $GCHDT,109.59,T*12
-> $GCROT,118.28,A*10
-> $CCHPR,113.47,-0.00,0.05*50
-> $GCHDT,109.71,T*18
-> $GCROT,115.39,A*1D
-> $GPRMC,000026.53,A,5050.702547,N,00044.762731,W,1.4,105.5,230418,4.0,W,A,S*41
-> $GCHDT,109.83,T*15
-> $GCROT,112.37,A*14
-> $CCHPR,113.83,-0.00,0.05*58
-> $GCHDT,109.95,T*12
-> $GCROT,109.39,A*10
-> $GCHDT,110.06,T*10
-> $GCROT,106.67,A*14
-> $CCHPR,113.83,-0.00,0.04*59
-> $GPRMC,000026.71,A,5050.702521,N,00044.762584,W,1.4,106.3,230418,4.0,W,A,S*48
-> $GCHDT,110.14,T*13
-> $GCROT,104.97,A*19
-> $GCHDT,110.22,T*16
-> $GCROT,103.45,A*11
-> $CCHPR,114.14,-0.00,0.04*50
-> $DYSIG,1.91*7B
-> $GCHDT,110.30,T*15
-> $GCROT,102.14,A*14
-> $GCHDT,110.38,T*1D
-> $GCROT,100.87,A*1C
-> $CCHPR,114.14,0.00,0.04*7D
-> $GPRMC,000026.90,A,5050.702505,N,00044.762501,W,1.4,106.7,230418,4.0,W,A,S*48
-> $GCHDT,110.49,T*1B
-> $GCROT,99.44,A*22
-> $GCHDT,110.56,T*15
-> $GCROT,98.48,A*2F
-> $CCHPR,114.49,-0.00,0.04*58
-> $GCHDT,110.64,T*14
-> $GCROT,97.68,A*22
-> $GCHDT,110.72,T*13
-> $GCROT,96.93,A*27
-> $CCHPR,114.49,-0.00,0.04*58
-> $GPRMC,000027.01,A,5050.702483,N,00044.762384,W,1.4,107.1,230418,4.0,W,A,S*42
-> $GCHDT,110.79,T*18
-> $GCROT,96.29,A*26
-> $PXTB,,,*32
-> $GCHDT,110.89,T*17
-> $GCROT,95.49,A*23
-> $CCHPR,114.89,0.00,0.04*79
-> $GCHDT,110.97,T*18
-> $GCROT,94.93,A*25
-> $CCHPR,114.89,0.00,0.04*79
-> $GCHDT,111.06,T*11
-> $GCROT,94.33,A*2F
-> $GPRMC,000027.32,A,5050.702459,N,00044.762265,W,1.4,107.5,230418,4.0,W,A,S*4F
-> $GCHDT,111.14,T*12
-> $GCROT,93.87,A*27
-> $GCHDT,111.21,T*14
-> $GCROT,93.49,A*25
-> $CCHPR,115.14,0.00,0.04*7C
-> $GCHDT,111.28,T*1D
-> $GCROT,93.05,A*2D
-> $GCHDT,111.36,T*12
-> $GCROT,92.69,A*26
-> $CCHPR,115.14,-0.00,0.04*51
-> $GPRMC,000027.51,A,5050.702436,N,00044.762149,W,1.4,107.9,230418,4.0,W,A,S*42
-> $GCHDT,111.45,T*16
-> $GCROT,92.30,A*2A
-> $GCHDT,111.52,T*10
-> $GCROT,92.00,A*29
-> $CCHPR,115.45,-0.00,0.03*52
-> $GCHDT,111.62,T*13
-> $GCROT,91.57,A*28
-> $CCHPR,115.45,-0.00,0.03*52
-> $GPRMC,000027.73,A,5050.702410,N,00044.762023,W,1.4,108.3,230418,4.0,W,A,S*4E
-> $GCHDT,111.79,T*19
-> $GCROT,90.96,A*24
-> $CCHPR,115.79,-0.00,0.03*5D
-> $DYSIG,0.62*76
-> $GCHDT,111.79,T*19
-> $GCROT,90.96,A*24
-> $GCHDT,111.95,T*1B
-> $GCROT,90.42,A*2D
-> $CCHPR,115.79,0.00,0.03*70
-> $GPRMC,000027.90,A,5050.702384,N,00044.761899,W,1.4,108.6,230418,4.0,W,A,S*46
-> $GCHDT,112.05,T*11
-> $GCROT,90.18,A*22
-> $GCHDT,112.14,T*11
-> $GCROT,89.85,A*2E
-> $CCHPR,116.05,-0.00,0.03*55
-> $GCHDT,112.23,T*15
-> $GCROT,89.53,A*25
-> $CCHPR,116.05,-0.00,0.03*55
-> $GCHDT,112.30,T*17
-> $GCROT,89.34,A*24
-> $GPRMC,000028.14,A,5050.702361,N,00044.761793,W,1.4,108.9,230418,4.0,W,A,S*44
-> $GCHDT,112.37,T*10
-> $GCROT,89.13,A*21
-> $PXTB,,,*32
-> $CCHPR,116.37,0.00,0.03*79
-> $GCHDT,112.44,T*14
-> $GCROT,88.95,A*2E
-> $GCHDT,112.51,T*10
-> $GCROT,88.76,A*23
-> $CCHPR,116.37,0.00,0.03*79
-> $GPRMC,000028.23,A,5050.702338,N,00044.761688,W,1.3,109.1,230418,4.0,W,A,S*49
-> $GCHDT,112.60,T*12
-> $GCROT,88.54,A*23
-> $GCHDT,112.67,T*15
-> $GCROT,88.36,A*27
-> $CCHPR,116.67,-0.00,0.03*51
-> $GCHDT,112.74,T*17
-> $GCROT,88.22,A*22
-> $GCHDT,112.83,T*1F
-> $GCROT,87.98,A*2C
-> $CCHPR,116.67,-0.00,0.03*51
-> $GCHDT,112.90,T*1D
-> $GCROT,87.84,A*21
-> $GPRMC,000028.54,A,5050.702311,N,00044.761564,W,1.3,109.4,230418,4.0,W,A,S*46
-> $GCHDT,112.99,T*14
-> $GCROT,87.53,A*2B
-> $CCHPR,116.99,-0.00,0.03*50
-> $GCHDT,113.09,T*1C
-> $GCROT,87.28,A*27
-> $CCHPR,116.99,-0.00,0.03*50
-> $GCHDT,113.18,T*1C
-> $GCROT,86.87,A*23
-> $GPRMC,000028.73,A,5050.702289,N,00044.761468,W,1.3,109.6,230418,4.0,W,A,S*4C
-> $GCHDT,113.29,T*1E
-> $GCROT,86.11,A*2C
-> $CCHPR,117.29,-0.00,0.03*5A
-> $DYSIG,0.00*72
-> $GCHDT,113.42,T*13
-> $GCROT,84.84,A*22
-> $CCHPR,117.29,0.00,0.03*77
-> $GPRMC,000028.90,A,5050.702266,N,00044.761363,W,1.3,109.9,230418,4.0,W,A,S*43
-> $GCHDT,113.51,T*11
-> $GCROT,83.86,A*27
-> $CCHPR,117.51,-0.00,0.03*55
-> $GCHDT,113.66,T*15
-> $GCROT,81.77,A*2B
-> $CCHPR,117.51,-0.00,0.03*55
-> $GPRMC,000029.12,A,5050.702238,N,00044.761243,W,1.3,110.2,230418,4.0,W,A,S*43
-> $GCHDT,113.79,T*1B
-> $GCROT,79.47,A*2F
-> $PXTB,,,*32
-> $GCHDT,113.85,T*18
-> $GCROT,78.25,A*2A
-> $CCHPR,117.79,-0.00,0.03*5F
-> $GCHDT,113.85,T*18
-> $GCROT,78.25,A*2A
-> $GCHDT,113.91,T*1D
-> $GCROT,76.94,A*2E
-> $GCHDT,113.97,T*1B
-> $GCROT,75.63,A*25
-> $CCHPR,117.79,0.00,0.03*72
-> $GPRMC,000029.31,A,5050.702214,N,00044.761139,W,1.3,110.5,230418,4.0,W,A,S*45
-> $GCHDT,114.03,T*11
-> $GCROT,74.23,A*20
-> $GCHDT,114.09,T*1B
-> $GCROT,72.85,A*2A
-> $CCHPR,118.03,0.00,0.03*70
-> $GCHDT,114.16,T*15
-> $GCROT,70.97,A*2B
-> $GCHDT,114.16,T*15
-> $GCROT,70.97,A*2B
-> $CCHPR,118.03,-0.00,0.03*5D
-> $GCHDT,114.23,T*13
-> $GCROT,69.13,A*2F
-> $GPRMC,000029.53,A,5050.702187,N,00044.761028,W,1.3,110.9,230418,4.0,W,A,S*45
-> $GCHDT,114.30,T*11
-> $GCROT,67.44,A*23
-> $CCHPR,118.30,0.00,0.03*70
-> $GCHDT,114.36,T*17
-> $GCROT,66.35,A*24
-> $GCHDT,114.41,T*17
-> $GCROT,65.31,A*23
-> $CCHPR,118.30,-0.00,0.02*5C
-> $GCHDT,114.47,T*11
-> $GCROT,64.10,A*21
-> $GPRMC,000029.75,A,5050.702158,N,00044.760908,W,1.3,111.3,230418,4.0,W,A,S*42
-> $GCHDT,114.52,T*15
-> $GCROT,63.25,A*20
-> $CCHPR,118.52,0.00,0.02*75
-> $DYSIG,1.51*77
-> $GCHDT,114.57,T*10
-> $GCROT,62.49,A*2B
-> $GCHDT,114.62,T*16
-> $GCROT,61.76,A*24
-> $CCHPR,118.52,-0.00,0.02*58
-> $GCHDT,114.67,T*13
-> $GCROT,61.11,A*25
-> $GPRMC,000029.93,A,5050.702131,N,00044.760799,W,1.3,111.6,230418,4.0,W,A,S*46
-> $GCHDT,114.72,T*17
-> $GCROT,60.47,A*27
-> $CCHPR,118.72,-0.00,0.02*5A
-> $GCHDT,114.77,T*12
-> $GCROT,59.90,A*27
-> $GCHDT,114.83,T*19
-> $GCROT,59.15,A*2A
-> $CCHPR,118.72,-0.00,0.02*5A
-> $GCHDT,114.87,T*1D
-> $GCROT,58.66,A*2F
-> $GPRMC,000030.14,A,5050.702103,N,00044.760690,W,1.3,111.9,230418,4.0,W,A,S*47
-> $GCHDT,114.92,T*19
-> $GCROT,58.16,A*28
-> $PXTB,,,*32
-> $CCHPR,118.92,0.00,0.02*79
-> $GCHDT,114.96,T*1D
-> $GCROT,57.72,A*25
-> $GCHDT,115.02,T*11
-> $GCROT,57.12,A*23
-> $CCHPR,118.92,-0.00,0.02*54
-> $GCHDT,115.07,T*14
-> $GCROT,56.74,A*22
-> $GPRMC,000030.23,A,5050.702076,N,00044.760582,W,1.3,112.1,230418,4.0,W,A,S*4B
-> $GCHDT,115.11,T*13
-> $GCROT,56.33,A*21
-> $CCHPR,119.11,0.00,0.02*73
-> $GCHDT,115.16,T*14
-> $GCROT,55.97,A*2C
-> $GCHDT,115.21,T*10
-> $GCROT,55.47,A*21
-> $CCHPR,119.11,0.00,0.02*73
-> $GCHDT,115.26,T*17
-> $GCROT,55.15,A*26
-> $GPRMC,000030.54,A,5050.702048,N,00044.760473,W,1.3,112.4,230418,4.0,W,A,S*4C
-> $GCHDT,115.31,T*11
-> $GCROT,54.68,A*2D
-> $CCHPR,119.32,-0.00,0.02*5F
-> $GCHDT,115.37,T*17
-> $GCROT,54.28,A*29
-> $GCHDT,115.41,T*16
-> $GCROT,53.96,A*2B
-> $CCHPR,119.32,-0.00,0.02*5F
-> $GPRMC,000030.71,A,5050.702024,N,00044.760382,W,1.3,112.5,230418,4.0,W,A,S*49
-> $GCHDT,115.46,T*11
-> $GCROT,53.68,A*2A
-> $GCHDT,115.50,T*16
-> $GCROT,53.36,A*21
-> $CCHPR,119.46,0.00,0.02*71
-> $DYSIG,2.29*7B
-> $GCHDT,115.54,T*12
-> $GCROT,53.08,A*2C
-> $GCHDT,115.58,T*1E
-> $GCROT,52.76,A*24
-> $CCHPR,119.46,-0.00,0.02*5C
-> $GPRMC,000030.90,A,5050.701998,N,00044.760282,W,1.3,112.7,230418,4.0,W,A,S*48
-> $GCHDT,115.64,T*11
-> $GCROT,52.38,A*2E
-> $GCHDT,115.68,T*1D
-> $GCROT,52.07,A*22
-> $CCHPR,119.64,-0.00,0.02*5C
-> $GCHDT,115.72,T*16
-> $GCROT,51.79,A*28
-> $GCHDT,115.76,T*12
-> $GCROT,51.47,A*25
-> $CCHPR,119.64,-0.00,0.02*5C
-> $GPRMC,000031.11,A,5050.701969,N,00044.760176,W,1.3,112.9,230418,4.0,W,A,S*48
-> $GCHDT,115.81,T*1A
-> $GCROT,51.08,A*2E
-> $PXTB,,,*32
-> $GCHDT,115.81,T*1A
-> $GCROT,51.08,A*2E
-> $CCHPR,119.81,-0.00,0.02*57
-> $GCHDT,115.86,T*1D
-> $GCROT,50.65,A*24
-> $GCHDT,115.92,T*18
-> $GCROT,50.19,A*2F
-> $CCHPR,119.81,0.00,0.02*7A
-> $GCHDT,115.95,T*1F
-> $GCROT,49.87,A*20
-> $GPRMC,000031.23,A,5050.701936,N,00044.760054,W,1.3,113.1,230418,4.0,W,A,S*4B
-> $GCHDT,115.99,T*13
-> $GCROT,49.51,A*2B
-> $CCHPR,119.99,-0.00,0.02*5E
-> $GCHDT,116.03,T*13
-> $GCROT,49.18,A*26
-> $GCHDT,116.08,T*18
-> $GCROT,48.69,A*21
-> $CCHPR,119.99,-0.00,0.02*5E
-> $GCHDT,116.12,T*13
-> $GCROT,48.35,A*28
-> $GPRMC,000031.54,A,5050.701908,N,00044.759947,W,1.3,113.3,230418,4.0,W,A,S*45
-> $GCHDT,116.17,T*16
-> $GCROT,47.81,A*28
-> $CCHPR,120.17,-0.00,0.02*52
-> $GCHDT,116.21,T*13
-> $GCROT,47.39,A*2B
-> $GCHDT,116.26,T*14
-> $GCROT,46.72,A*25
-> $CCHPR,120.17,-0.00,0.02*52
-> $GPRMC,000031.71,A,5050.701877,N,00044.759833,W,1.3,113.5,230418,4.0,W,A,S*4F
-> $GCHDT,116.29,T*1B
-> $GCROT,46.14,A*25
-> $GCHDT,116.33,T*10
-> $GCROT,45.54,A*22
-> $CCHPR,120.29,-0.00,0.02*5F
-> $DYSIG,0.00*72
-> $GCHDT,116.37,T*14
-> $GCROT,44.94,A*2F
-> $GCHDT,116.40,T*14
-> $GCROT,44.27,A*27
-> $CCHPR,120.29,-0.00,0.02*5F
-> $GPRMC,000031.90,A,5050.701857,N,00044.759760,W,1.3,113.6,230418,4.0,W,A,S*48
-> $GCHDT,116.45,T*11
-> $GCROT,43.37,A*21
-> $GCHDT,116.45,T*11
-> $GCROT,43.37,A*21
-> $CCHPR,120.45,-0.00,0.02*55
-> $GCHDT,116.48,T*1C
-> $GCROT,42.63,A*21
-> $GCHDT,116.52,T*17
-> $GCROT,41.65,A*24
-> $GCHDT,116.56,T*13
-> $GCROT,40.91,A*2E
-> $CCHPR,120.45,-0.00,0.02*55
-> $GCHDT,116.56,T*13
-> $GCROT,40.91,A*2E
-> $GPRMC,000032.12,A,5050.701825,N,00044.759648,W,1.3,113.8,230418,4.0,W,A,S*41
-> $GCHDT,116.60,T*16
-> $GCROT,39.75,A*2A
-> $PXTB,,,*32
-> $CCHPR,120.60,-0.00,0.02*52
-> $GCHDT,116.60,T*16
-> $GCROT,39.75,A*2A
-> $GCHDT,116.67,T*11
-> $GCROT,37.79,A*28
-> $CCHPR,120.60,0.00,0.01*7C
-> $GPRMC,000032.23,A,5050.701794,N,00044.759536,W,1.3,114.0,230418,4.0,W,A,S*43
-> $GCHDT,116.74,T*13
-> $GCROT,35.85,A*29
-> $CCHPR,120.74,-0.00,0.01*54
-> $GCHDT,116.77,T*10
-> $GCROT,34.81,A*2C
-> $CCHPR,120.74,0.00,0.01*79
-> $GCHDT,116.80,T*18
-> $GCROT,34.04,A*21
-> $GPRMC,000032.51,A,5050.701769,N,00044.759447,W,1.3,114.2,230418,4.0,W,A,S*41
-> $GCHDT,116.83,T*1B
-> $GCROT,33.26,A*26
-> $GCHDT,116.85,T*1D
-> $GCROT,32.54,A*22
-> $CCHPR,120.83,-0.00,0.01*5C
-> $GCHDT,116.88,T*10
-> $GCROT,31.67,A*21
-> $GCHDT,116.91,T*18
-> $GCROT,31.00,A*20
-> $CCHPR,120.83,-0.00,0.01*5C
-> $GPRMC,000032.71,A,5050.701739,N,00044.759344,W,1.3,114.4,230418,4.0,W,A,S*44
-> $GCHDT,116.93,T*1A
-> $GCROT,30.38,A*2A
-> $GCHDT,116.96,T*1F
-> $GCROT,29.74,A*2A
-> $CCHPR,120.93,-0.00,0.01*5D
-> $DYSIG,0.00*72
-> $GCHDT,116.99,T*10
-> $GCROT,28.95,A*24
-> $GCHDT,117.01,T*10
-> $GCROT,28.33,A*28
-> $CCHPR,120.93,0.00,0.01*70
-> $GPRMC,000032.92,A,5050.701710,N,00044.759241,W,1.3,114.6,230418,4.0,W,A,S*44
-> $GCHDT,117.03,T*12
-> $GCROT,27.70,A*20
-> $GCHDT,117.05,T*14
-> $GCROT,27.10,A*26
-> $CCHPR,121.03,-0.00,0.01*55
-> $GCHDT,117.07,T*16
-> $GCROT,26.54,A*27
-> $GCHDT,117.09,T*18
-> $GCROT,25.95,A*29
-> $CCHPR,121.03,-0.00,0.01*55
-> $GCHDT,117.11,T*11
-> $GCROT,25.40,A*21
-> $GPRMC,000033.15,A,5050.701682,N,00044.759146,W,1.3,114.7,230418,4.0,W,A,S*45
-> $GCHDT,117.14,T*14
-> $GCROT,24.63,A*21
-> $PXTB,,,*32
-> $CCHPR,121.14,-0.00,0.01*53
-> $GCHDT,117.16,T*16
-> $GCROT,24.09,A*2D
-> $CCHPR,121.14,-0.00,0.01*53
-> $GCHDT,117.18,T*18
-> $GCROT,23.58,A*2E
-> $GPRMC,000033.31,A,5050.701652,N,00044.759044,W,1.3,114.9,230418,4.0,W,A,S*43
-> $GCHDT,117.20,T*13
-> $GCROT,23.04,A*27
-> $GCHDT,117.22,T*11
-> $GCROT,22.37,A*26
-> $CCHPR,121.20,-0.00,0.01*54
-> $GCHDT,117.24,T*17
-> $GCROT,21.83,A*2A
-> $CCHPR,121.20,-0.00,0.01*54
-> $GCHDT,117.25,T*16
-> $GCROT,21.32,A*20
-> $GPRMC,000033.51,A,5050.701623,N,00044.758942,W,1.3,115.0,230418,4.0,W,A,S*45
-> $GCHDT,117.28,T*1B
-> $GCROT,20.61,A*27
-> $GCHDT,117.29,T*1A
-> $GCROT,20.10,A*21
-> $CCHPR,121.28,0.00,0.01*71
-> $GCHDT,117.31,T*13
-> $GCROT,19.56,A*29
-> $GCHDT,117.32,T*10
-> $GCROT,19.04,A*2E
-> $CCHPR,121.28,-0.00,0.01*5C
-> $GPRMC,000033.71,A,5050.701593,N,00044.758841,W,1.2,115.1,230418,4.0,W,A,S*4D
-> $GCHDT,117.34,T*16
-> $GCROT,18.49,A*26
-> $GCHDT,117.35,T*17
-> $GCROT,17.96,A*2B
-> $CCHPR,121.34,-0.00,0.01*51
-> $DYSIG,0.00*72
-> $GCHDT,117.36,T*14
-> $GCROT,17.46,A*26
-> $GCHDT,117.38,T*1A
-> $GCROT,16.99,A*25
-> $CCHPR,121.34,0.00,0.01*7C
-> $GPRMC,000033.90,A,5050.701565,N,00044.758747,W,1.2,115.2,230418,4.0,W,A,S*41
-> $GCHDT,117.40,T*15
-> $GCROT,16.39,A*2F
-> $CCHPR,121.40,-0.00,0.01*52
-> $GCHDT,117.41,T*14
-> $GCROT,15.91,A*2E
-> $GCHDT,117.42,T*17
-> $GCROT,15.20,A*24
-> $GCHDT,117.44,T*11
-> $GCROT,14.71,A*21
-> $CCHPR,121.40,-0.00,0.01*52
-> $GPRMC,000034.12,A,5050.701532,N,00044.758638,W,1.2,115.3,230418,4.0,W,A,S*46
-> $GCHDT,117.45,T*10
-> $GCROT,14.16,A*20
-> $PXTB,,,*32
-> $CCHPR,121.45,-0.00,0.01*57
-> $GCHDT,117.46,T*13
-> $GCROT,13.64,A*22
-> $GCHDT,117.47,T*12
-> $GCROT,13.08,A*28
-> $CCHPR,121.45,-0.00,0.01*57
-> $GCHDT,117.48,T*1D
-> $GCROT,12.36,A*24
-> $GPRMC,000034.32,A,5050.701504,N,00044.758545,W,1.2,115.4,230418,4.0,W,A,S*4F
-> $GCHDT,117.49,T*1C
-> $GCROT,11.78,A*2D
-> $GCHDT,117.50,T*14
-> $GCROT,11.23,A*23
-> $CCHPR,121.49,0.00,0.00*77
-> $GCHDT,117.51,T*15
-> $GCROT,10.69,A*2C
-> $GCHDT,117.52,T*16
-> $GCROT,10.17,A*25
-> $CCHPR,121.49,-0.00,0.00*5A
-> $GPRMC,000034.51,A,5050.701474,N,00044.758445,W,1.2,115.5,230418,4.0,W,A,S*4C
-> $GCHDT,117.52,T*16
-> $GCROT,9.59,A*17
-> $GCHDT,117.53,T*17
-> $GCROT,9.03,A*18
-> $CCHPR,121.52,-0.00,0.00*50
-> $GCHDT,117.54,T*10
-> $GCROT,8.49,A*17
-> $GCHDT,117.55,T*11
-> $GCROT,7.71,A*13
-> $CCHPR,121.52,-0.00,0.00*50
-> $GPRMC,000034.71,A,5050.701437,N,00044.758321,W,1.2,115.6,230418,4.0,W,A,S*4F
-> $GCHDT,117.55,T*11
-> $GCROT,6.86,A*1A
-> $CCHPR,121.55,0.00,0.00*7A
-> $DYSIG,0.00*72
-> $GCHDT,117.56,T*12
-> $GCROT,6.06,A*12
-> $GCHDT,117.57,T*13
-> $GCROT,5.48,A*1B
-> $CCHPR,121.55,-0.00,0.00*57
-> $GCHDT,117.57,T*13
-> $GCROT,5.48,A*1B
-> $GCHDT,117.57,T*13
-> $GCROT,4.93,A*1C
-> $GPRMC,000034.93,A,5050.701411,N,00044.758236,W,1.2,115.7,230418,4.0,W,A,S*41
-> $GCHDT,117.57,T*13
-> $GCROT,4.32,A*17
-> $CCHPR,121.57,-0.00,0.00*55
-> $GCHDT,117.58,T*1C
-> $GCROT,3.74,A*12
-> $GCHDT,117.58,T*1C
-> $GCROT,2.91,A*18
-> $CCHPR,121.57,-0.00,0.00*55
-> $GCHDT,117.58,T*1C
-> $GCROT,2.12,A*13
-> $GPRMC,000035.15,A,5050.701381,N,00044.758137,W,1.2,115.8,230418,4.0,W,A,S*4D
-> $GCHDT,117.58,T*1C
-> $GCROT,1.29,A*18
-> $PXTB,,,*32
-> $CCHPR,121.58,-0.00,0.00*5A
-> $GCHDT,117.59,T*1D
-> $GCROT,0.14,A*17
-> $CCHPR,121.58,0.00,0.00*77
-> $GPRMC,000035.31,A,5050.701355,N,00044.758052,W,1.2,115.8,230418,4.0,W,A,S*40
-> $GCHDT,117.59,T*1D
-> $GCROT,-0.40,A*3B
-> $GCHDT,117.59,T*1D
-> $GCROT,-0.97,A*31
-> $CCHPR,121.59,-0.00,0.00*5B
-> $GCHDT,117.58,T*1C
-> $GCROT,-1.70,A*39
-> $GCHDT,117.58,T*1C
-> $GCROT,-2.28,A*37
-> $CCHPR,121.59,0.00,0.00*76
-> $GPRMC,000035.51,A,5050.701325,N,00044.757953,W,1.2,115.9,230418,4.0,W,A,S*47
-> $GCHDT,117.58,T*1C
-> $GCROT,-2.84,A*31
-> $GCHDT,117.58,T*1C
-> $GCROT,-3.44,A*3C
-> $CCHPR,121.58,-0.00,-0.00*77
-> $GCHDT,117.58,T*1C
-> $GCROT,-3.44,A*3C
-> $GCHDT,117.57,T*13
-> $GCROT,-4.01,A*3A
-> $GCHDT,117.57,T*13
-> $GCROT,-4.01,A*3A
-> $GCHDT,117.57,T*13
-> $GCROT,-4.83,A*30
-> $CCHPR,121.58,0.00,-0.00*5A
-> $GPRMC,000035.71,A,5050.701287,N,00044.757831,W,1.2,116.0,230418,4.0,W,A,S*43
-> $GCHDT,117.57,T*13
-> $GCROT,-5.41,A*3F
-> $CCHPR,121.57,-0.00,-0.00*78
-> $DYSIG,0.00*72
-> $GCHDT,117.56,T*12
-> $GCROT,-5.97,A*34
-> $GCHDT,117.56,T*12
-> $GCROT,-6.58,A*34
-> $GCHDT,117.55,T*11
-> $GCROT,-7.35,A*3E
-> $CCHPR,121.57,0.00,-0.00*55
-> $GPRMC,000035.92,A,5050.701266,N,00044.757762,W,1.2,116.0,230418,4.0,W,A,S*48
-> $GCHDT,117.54,T*10
-> $GCROT,-8.49,A*3A
-> $CCHPR,121.54,-0.00,-0.00*7B
-> $GCHDT,117.53,T*17
-> $GCROT,-9.06,A*30
-> $GCHDT,117.52,T*16
-> $GCROT,-9.61,A*31
-> $CCHPR,121.54,-0.00,-0.00*7B
-> $GCHDT,117.52,T*16
-> $GCROT,-10.14,A*0B
-> $GPRMC,000036.15,A,5050.701236,N,00044.757663,W,1.2,116.0,230418,4.0,W,A,S*41
-> $GCHDT,117.50,T*14
-> $GCROT,-10.90,A*07
-> $PXTB,,,*32
-> $CCHPR,121.50,-0.00,-0.00*7F
-> $GCHDT,117.50,T*14
-> $GCROT,-11.45,A*0E
-> $CCHPR,121.50,0.00,-0.00*52
-> $GCHDT,117.49,T*1C
-> $GCROT,-12.04,A*08
-> $GPRMC,000036.31,A,5050.701205,N,00044.757564,W,1.2,116.1,230418,4.0,W,A,S*42
-> $GCHDT,117.48,T*1D
-> $GCROT,-12.61,A*0B
-> $GCHDT,117.48,T*1D
-> $GCROT,-12.61,A*0B
-> $GCHDT,117.47,T*12
-> $GCROT,-13.23,A*0C
-> $CCHPR,121.48,-0.00,-0.00*76
-> $GCHDT,117.45,T*10
-> $GCROT,-14.01,A*0B
-> $GCHDT,117.45,T*10
-> $GCROT,-14.01,A*0B
-> $CCHPR,121.48,0.00,-0.00*5B
-> $GCHDT,117.44,T*11
-> $GCROT,-14.77,A*0A
-> $GPRMC,000036.53,A,5050.701175,N,00044.757466,W,1.2,116.1,230418,4.0,W,A,S*41
-> $GCHDT,117.42,T*17
-> $GCROT,-15.56,A*08
-> $CCHPR,121.42,-0.00,-0.00*7C
-> $GCHDT,117.41,T*14
-> $GCROT,-16.14,A*0D
-> $GCHDT,117.40,T*15
-> $GCROT,-16.76,A*09
-> $CCHPR,121.42,-0.00,-0.00*7C
-> $GCHDT,117.38,T*1A
-> $GCROT,-17.56,A*0A
-> $GPRMC,000036.75,A,5050.701142,N,00044.757360,W,1.2,116.1,230418,4.0,W,A,S*40
-> $GCHDT,117.36,T*14
-> $GCROT,-18.13,A*04
-> $CCHPR,121.36,-0.00,-0.00*7F
-> $DYSIG,1.17*75
-> $GCHDT,117.35,T*17
-> $GCROT,-18.68,A*08
-> $GCHDT,117.33,T*11
-> $GCROT,-19.49,A*0A
-> $CCHPR,121.36,-0.00,-0.00*7F
-> $GPRMC,000036.90,A,5050.701109,N,00044.757254,W,1.2,116.2,230418,4.0,W,A,S*41
-> $GCHDT,117.31,T*13
-> $GCROT,-20.24,A*0B
-> $GCHDT,117.29,T*1A
-> $GCROT,-20.86,A*03
-> $CCHPR,121.31,-0.00,-0.01*79
-> $GCHDT,117.28,T*1B
-> $GCROT,-21.46,A*0E
-> $GCHDT,117.26,T*15
-> $GCROT,-22.04,A*0B
-> $CCHPR,121.31,-0.00,-0.01*79
-> $GPRMC,000037.11,A,5050.701085,N,00044.757178,W,1.2,116.2,230418,4.0,W,A,S*41
-> $GCHDT,117.24,T*17
-> $GCROT,-22.77,A*0F
-> $PXTB,,,*32
-> $GCHDT,117.22,T*11
-> $GCROT,-23.37,A*0A
-> $CCHPR,121.24,-0.00,-0.01*7D
-> $GCHDT,117.19,T*19
-> $GCROT,-24.25,A*0E
-> $CCHPR,121.24,-0.00,-0.01*7D
-> $GCHDT,117.17,T*17
-> $GCROT,-25.06,A*0E
-> $GPRMC,000037.34,A,5050.701053,N,00044.757072,W,1.2,116.2,230418,4.0,W,A,S*46
-> $GCHDT,117.14,T*14
-> $GCROT,-25.84,A*04
-> $CCHPR,121.14,-0.00,-0.01*7E
-> $GCHDT,117.11,T*11
-> $GCROT,-26.56,A*08
-> $GCHDT,117.09,T*18
-> $GCROT,-27.14,A*0F
-> $CCHPR,121.14,-0.00,-0.01*7E
-> $GPRMC,000037.51,A,5050.701025,N,00044.756982,W,1.2,116.2,230418,4.0,W,A,S*43
-> $GCHDT,117.07,T*16
-> $GCROT,-27.70,A*0D
-> $GCHDT,117.04,T*15
-> $GCROT,-28.49,A*08
-> $CCHPR,121.07,0.00,-0.01*51
-> $GCHDT,117.01,T*10
-> $GCROT,-29.24,A*02
-> $CCHPR,121.07,-0.00,-0.01*7C
-> $GCHDT,116.99,T*10
-> $GCROT,-29.78,A*0B
-> $GPRMC,000037.73,A,5050.700992,N,00044.756876,W,1.2,116.2,230418,4.0,W,A,S*4D
-> $GCHDT,116.97,T*1E
-> $GCROT,-30.35,A*0A
-> $CCHPR,120.97,-0.00,-0.01*74
-> $DYSIG,0.00*72
-> $GCHDT,116.93,T*1A
-> $GCROT,-31.09,A*04
-> $GCHDT,116.91,T*18
-> $GCROT,-31.68,A*03
-> $CCHPR,120.97,-0.00,-0.01*74
-> $GCHDT,116.91,T*18
-> $GCROT,-31.68,A*03
-> $GCHDT,116.88,T*10
-> $GCROT,-32.25,A*09
-> $GCHDT,116.88,T*10
-> $GCROT,-32.25,A*09
-> $GPRMC,000037.93,A,5050.700961,N,00044.756778,W,1.2,116.2,230418,4.0,W,A,S*4E
-> $GCHDT,116.86,T*1E
-> $GCROT,-32.80,A*06
-> $CCHPR,120.86,-0.00,-0.01*74
-> $GCHDT,116.86,T*1E
-> $GCROT,-32.80,A*06
-> $GCHDT,116.83,T*1B
-> $GCROT,-33.33,A*0F
-> $GCHDT,116.80,T*18
-> $GCROT,-34.08,A*00
-> $CCHPR,120.86,-0.00,-0.01*74
-> $GCHDT,116.77,T*10
-> $GCROT,-34.63,A*0D
-> $GPRMC,000038.14,A,5050.700931,N,00044.756680,W,1.2,116.1,230418,4.0,W,A,S*4E
-> $GCHDT,116.74,T*13
-> $GCROT,-35.16,A*0E
-> $PXTB,,,*32
-> $CCHPR,120.74,-0.00,-0.01*79
-> $GCHDT,116.71,T*16
-> $GCROT,-35.83,A*02
-> $CCHPR,120.74,-0.00,-0.01*79
-> $GCHDT,116.65,T*13
-> $GCROT,-36.93,A*00
-> $GPRMC,000038.34,A,5050.700901,N,00044.756582,W,1.2,116.1,230418,4.0,W,A,S*4E
-> $GCHDT,116.62,T*14
-> $GCROT,-37.45,A*0A
-> $CCHPR,120.62,-0.00,-0.01*7E
-> $GCHDT,116.59,T*1C
-> $GCROT,-37.96,A*04
-> $GCHDT,116.59,T*1C
-> $GCROT,-37.96,A*04
-> $GCHDT,116.56,T*13
-> $GCROT,-38.52,A*03
-> $CCHPR,120.62,-0.00,-0.01*7E
-> $GCHDT,116.53,T*16
-> $GCROT,-39.06,A*03
-> $GPRMC,000038.53,A,5050.700873,N,00044.756491,W,1.2,116.0,230418,4.0,W,A,S*49
-> $GCHDT,116.49,T*1D
-> $GCROT,-39.74,A*06
-> $CCHPR,120.49,0.00,-0.01*5A
-> $GCHDT,116.46,T*12
-> $GCROT,-40.24,A*0D
-> $GCHDT,116.43,T*17
-> $GCROT,-40.80,A*03
-> $CCHPR,120.49,0.00,-0.01*5A
-> $GCHDT,116.40,T*14
-> $GCROT,-41.33,A*0A
-> $GCHDT,116.40,T*14
-> $GCROT,-41.33,A*0A
-> $GPRMC,000038.73,A,5050.700842,N,00044.756394,W,1.2,116.0,230418,4.0,W,A,S*4B
-> $GCHDT,116.36,T*15
-> $GCROT,-41.85,A*07
-> $CCHPR,120.36,0.00,-0.01*52
-> $DYSIG,0.00*72
-> $GCHDT,116.32,T*11
-> $GCROT,-42.51,A*0D
-> $GCHDT,116.27,T*15
-> $GCROT,-43.25,A*0F
-> $CCHPR,120.36,-0.00,-0.01*7F
-> $GPRMC,000038.90,A,5050.700810,N,00044.756288,W,1.2,115.9,230418,4.0,W,A,S*47
-> $GCHDT,116.23,T*11
-> $GCROT,-43.94,A*05
-> $GCHDT,116.19,T*18
-> $GCROT,-44.51,A*0B
-> $CCHPR,120.23,-0.00,-0.01*7B
-> $GCHDT,116.15,T*14
-> $GCROT,-45.24,A*08
-> $GCHDT,116.10,T*11
-> $GCROT,-45.95,A*02
-> $CCHPR,120.23,0.00,-0.01*56
-> $GPRMC,000039.14,A,5050.700785,N,00044.756205,W,1.2,115.9,230418,4.0,W,A,S*4C
-> $GCHDT,116.06,T*16
-> $GCROT,-46.52,A*0A
-> $PXTB,,,*32
-> $CCHPR,120.06,-0.00,-0.01*7C
-> $GCHDT,116.03,T*13
-> $GCROT,-47.08,A*04
-> $GCHDT,115.99,T*13
-> $GCROT,-47.62,A*08
-> $CCHPR,120.06,-0.00,-0.01*7C
-> $GCHDT,115.94,T*1E
-> $GCROT,-48.31,A*01
-> $GPRMC,000039.34,A,5050.700754,N,00044.756107,W,1.2,115.9,230418,4.0,W,A,S*43
-> $GCHDT,115.90,T*1A
-> $GCROT,-48.87,A*0C
-> $CCHPR,119.90,0.00,-0.01*54
-> $GCHDT,115.85,T*1E
-> $GCROT,-49.60,A*04
-> $GCHDT,115.85,T*1E
-> $GCROT,-49.60,A*04
-> $GCHDT,115.81,T*1A
-> $GCROT,-50.13,A*08
-> $CCHPR,119.90,0.00,-0.01*54
-> $GPRMC,000039.50,A,5050.700722,N,00044.756002,W,1.2,115.8,230418,4.0,W,A,S*45
-> $GCHDT,115.76,T*12
-> $GCROT,-50.81,A*03
-> $CCHPR,119.76,-0.00,-0.01*71
-> $GCHDT,115.67,T*12
-> $GCROT,-52.08,A*00
-> $GCHDT,115.61,T*14
-> $GCROT,-52.77,A*08
-> $CCHPR,119.76,-0.00,-0.02*72
-> $GPRMC,000039.73,A,5050.700697,N,00044.755919,W,1.2,115.7,230418,4.0,W,A,S*44
-> $GCHDT,115.56,T*10
-> $GCROT,-53.51,A*0D
-> $CCHPR,119.56,-0.00,-0.02*70
-> $DYSIG,0.30*71
-> $GCHDT,115.51,T*17
-> $GCROT,-54.05,A*0B
-> $GCHDT,115.47,T*10
-> $GCROT,-54.57,A*0C
-> $CCHPR,119.56,-0.00,-0.02*70
-> $GCHDT,115.43,T*14
-> $GCROT,-55.08,A*07
-> $GPRMC,000039.93,A,5050.700665,N,00044.755813,W,1.2,115.7,230418,4.0,W,A,S*4C
-> $GCHDT,115.39,T*19
-> $GCROT,-55.64,A*0D
-> $CCHPR,119.39,-0.00,-0.02*79
-> $GCHDT,115.33,T*13
-> $GCROT,-56.36,A*09
-> $GCHDT,115.28,T*19
-> $GCROT,-56.94,A*01
-> $CCHPR,119.39,-0.00,-0.02*79
-> $GCHDT,115.24,T*15
-> $GCROT,-57.52,A*0A
-> $GPRMC,000040.14,A,5050.700635,N,00044.755715,W,1.2,115.6,230418,4.0,W,A,S*40
-> $GCHDT,115.19,T*1B
-> $GCROT,-58.06,A*04
-> $PXTB,,,*32
-> $CCHPR,119.19,-0.00,-0.02*7B
-> $GCHDT,115.15,T*17
-> $GCROT,-58.58,A*0F
-> $GCHDT,115.10,T*12
-> $GCROT,-59.12,A*00
-> $CCHPR,119.19,-0.00,-0.02*7B
-> $GCHDT,115.04,T*17
-> $GCROT,-59.78,A*0C
-> $GPRMC,000040.34,A,5050.700608,N,00044.755624,W,1.2,115.5,230418,4.0,W,A,S*4C
-> $GCHDT,114.99,T*12
-> $GCROT,-60.28,A*03
-> $CCHPR,118.99,-0.00,-0.02*72
-> $GCHDT,114.95,T*1E
-> $GCROT,-60.74,A*0A
-> $GCHDT,114.90,T*1B
-> $GCROT,-61.17,A*0E
-> $CCHPR,118.99,-0.00,-0.02*72
-> $GCHDT,114.85,T*1F
-> $GCROT,-61.57,A*0A
-> $GPRMC,000040.53,A,5050.700578,N,00044.755526,W,1.2,115.4,230418,4.0,W,A,S*49
-> $GCHDT,114.79,T*1C
-> $GCROT,-62.14,A*0E
-> $CCHPR,118.79,-0.00,-0.02*7C
-> $GCHDT,114.74,T*11
-> $GCROT,-62.53,A*0D
-> $GCHDT,114.67,T*13
-> $GCROT,-63.00,A*0A
-> $CCHPR,118.79,-0.00,-0.02*7C
-> $GCHDT,114.62,T*16
-> $GCROT,-63.30,A*09
-> $GPRMC,000040.75,A,5050.700546,N,00044.755420,W,1.2,115.3,230418,4.0,W,A,S*40
-> $GCHDT,114.57,T*10
-> $GCROT,-63.63,A*0F
-> $CCHPR,118.57,-0.00,-0.02*70
-> $DYSIG,1.83*78
-> $GCHDT,114.52,T*15
-> $GCROT,-63.93,A*00
-> $GCHDT,114.47,T*11
-> $GCROT,-64.19,A*05
-> $CCHPR,118.57,-0.00,-0.02*70
-> $GCHDT,114.42,T*14
-> $GCROT,-64.41,A*08
-> $GPRMC,000040.93,A,5050.700519,N,00044.755329,W,1.2,115.3,230418,4.0,W,A,S*4C
-> $GCHDT,114.37,T*16
-> $GCROT,-64.66,A*0D
-> $CCHPR,118.37,-0.00,-0.02*76
-> $GCHDT,114.32,T*13
-> $GCROT,-64.89,A*0C
-> $GCHDT,114.25,T*15
-> $GCROT,-65.19,A*04
-> $CCHPR,118.37,-0.00,-0.02*76
-> $GCHDT,114.20,T*10
-> $GCROT,-65.41,A*09
-> $GPRMC,000041.14,A,5050.700490,N,00044.755231,W,1.2,115.1,230418,4.0,W,A,S*48
-> $GCHDT,114.15,T*16
-> $GCROT,-65.69,A*03
-> $PXTB,,,*32
-> $CCHPR,118.15,-0.00,-0.02*76
-> $GCHDT,114.10,T*13
-> $GCROT,-65.96,A*03
-> $GCHDT,114.03,T*11
-> $GCROT,-66.31,A*0D
-> $CCHPR,118.15,-0.00,-0.02*76
-> $GPRMC,000041.29,A,5050.700461,N,00044.755132,W,1.2,115.0,230418,4.0,W,A,S*49
-> $GCHDT,113.96,T*1A
-> $GCROT,-66.66,A*0F
-> $GCHDT,113.91,T*1D
-> $GCROT,-66.97,A*01
-> $CCHPR,117.96,-0.00,-0.02*72
-> $GCHDT,113.84,T*19
-> $GCROT,-67.38,A*05
-> $CCHPR,117.96,-0.00,-0.02*72
-> $GCHDT,113.77,T*15
-> $GCROT,-67.78,A*01
-> $GPRMC,000041.53,A,5050.700436,N,00044.755048,W,1.2,114.9,230418,4.0,W,A,S*42
-> $GCHDT,113.70,T*12
-> $GCROT,-68.25,A*06
-> $CCHPR,117.70,0.00,-0.02*57
-> $GCHDT,113.63,T*10
-> $GCROT,-68.71,A*07
-> $GCHDT,113.56,T*16
-> $GCROT,-69.15,A*04
-> $CCHPR,117.70,-0.00,-0.02*7A
-> $GPRMC,000041.71,A,5050.700401,N,00044.754927,W,1.2,114.7,230418,4.0,W,A,S*49
-> $GCHDT,113.50,T*10
-> $GCROT,-69.47,A*03
-> $GCHDT,113.43,T*12
-> $GCROT,-69.97,A*0E
-> $CCHPR,117.50,0.00,-0.02*55
-> $DYSIG,0.00*72
-> $GCHDT,113.37,T*11
-> $GCROT,-70.33,A*08
-> $GCHDT,113.32,T*14
-> $GCROT,-70.69,A*07
-> $CCHPR,117.50,0.00,-0.02*55
-> $GPRMC,000041.92,A,5050.700379,N,00044.754851,W,1.2,114.6,230418,4.0,W,A,S*4D
-> $GCHDT,113.26,T*11
-> $GCROT,-71.10,A*08
-> $GCHDT,113.21,T*16
-> $GCROT,-71.50,A*0C
-> $CCHPR,117.26,-0.00,-0.02*79
-> $GCHDT,113.15,T*11
-> $GCROT,-71.89,A*08
-> $GCHDT,113.10,T*14
-> $GCROT,-72.27,A*0F
-> $CCHPR,117.26,-0.00,-0.02*79
-> $GCHDT,113.04,T*11
-> $GCROT,-72.64,A*08
-> $GPRMC,000042.15,A,5050.700352,N,00044.754759,W,1.2,114.5,230418,4.0,W,A,S*4C
-> $GCHDT,112.96,T*1B
-> $GCROT,-73.20,A*09
-> $PXTB,,,*32
-> $CCHPR,116.96,0.00,-0.02*5E
-> $GCHDT,112.96,T*1B
-> $GCROT,-73.20,A*09
-> $GCHDT,112.91,T*1C
-> $GCROT,-73.61,A*0C
-> $CCHPR,116.96,0.00,-0.02*5E
-> $GCHDT,112.85,T*19
-> $GCROT,-74.00,A*0C
-> $GPRMC,000042.31,A,5050.700324,N,00044.754660,W,1.2,114.4,230418,4.0,W,A,S*41
-> $GCHDT,112.79,T*1A
-> $GCROT,-74.44,A*0C
-> $GCHDT,112.71,T*12
-> $GCROT,-74.99,A*0C
-> $CCHPR,116.79,-0.00,-0.02*72
-> $GCHDT,112.65,T*17
-> $GCROT,-75.42,A*0B
-> $CCHPR,116.79,-0.00,-0.02*72
-> $GCHDT,112.59,T*18
-> $GCROT,-75.83,A*06
-> $GPRMC,000042.51,A,5050.700296,N,00044.754561,W,1.2,114.2,230418,4.0,W,A,S*4B
-> $GCHDT,112.52,T*13
-> $GCROT,-76.36,A*0B
-> $GCHDT,112.46,T*16
-> $GCROT,-76.75,A*0C
-> $CCHPR,116.52,-0.00,-0.02*7B
-> $GCHDT,112.40,T*10
-> $GCROT,-77.12,A*0C
-> $GCHDT,112.33,T*14
-> $GCROT,-77.56,A*0C
-> $CCHPR,116.52,-0.00,-0.02*7B
-> $GPRMC,000042.71,A,5050.700268,N,00044.754462,W,1.2,114.1,230418,4.0,W,A,S*49
-> $GCHDT,112.25,T*13
-> $GCROT,-78.12,A*03
-> $CCHPR,116.25,-0.00,-0.02*7B
-> $DYSIG,0.27*77
-> $GCHDT,112.17,T*12
-> $GCROT,-78.66,A*00
-> $CCHPR,116.25,-0.00,-0.02*7B
-> $GCHDT,112.05,T*11
-> $GCROT,-79.44,A*01
-> $GPRMC,000042.93,A,5050.700237,N,00044.754355,W,1.2,114.0,230418,4.0,W,A,S*4D
-> $GCHDT,111.99,T*17
-> $GCROT,-79.88,A*01
-> $CCHPR,115.99,0.00,-0.02*52
-> $GCHDT,111.92,T*1C
-> $GCROT,-80.29,A*0C
-> $GCHDT,111.84,T*1B
-> $GCROT,-80.76,A*06
-> $CCHPR,115.99,0.00,-0.03*53
-> $GCHDT,111.78,T*18
-> $GCROT,-81.04,A*02
-> $GPRMC,000043.14,A,5050.700210,N,00044.754255,W,1.2,113.8,230418,4.0,W,A,S*48
-> $GCHDT,111.71,T*11
-> $GCROT,-81.33,A*06
-> $PXTB,,,*32
-> $CCHPR,115.71,-0.00,-0.03*78
-> $GCHDT,111.65,T*14
-> $GCROT,-81.56,A*05
-> $GCHDT,111.59,T*1B
-> $GCROT,-81.73,A*02
-> $CCHPR,115.71,-0.00,-0.03*78
-> $GCHDT,111.59,T*1B
-> $GCROT,-81.73,A*02
-> $GCHDT,111.50,T*12
-> $GCROT,-81.88,A*06
-> $GPRMC,000043.23,A,5050.700184,N,00044.754164,W,1.2,113.7,230418,4.0,W,A,S*4C
-> $GCHDT,111.44,T*17
-> $GCROT,-81.95,A*0A
-> $CCHPR,115.44,-0.00,-0.03*7E
-> $GCHDT,111.37,T*13
-> $GCROT,-81.97,A*08
-> $GCHDT,111.29,T*1C
-> $GCROT,-81.94,A*0B
-> $CCHPR,115.44,-0.00,-0.03*7E
-> $GPRMC,000043.54,A,5050.700154,N,00044.754056,W,1.2,113.5,230418,4.0,W,A,S*43
-> $GCHDT,111.16,T*10
-> $GCROT,-81.68,A*08
-> $CCHPR,115.16,-0.00,-0.03*79
-> $GCHDT,111.10,T*16
-> $GCROT,-81.46,A*04
-> $GCHDT,111.10,T*16
-> $GCROT,-81.46,A*04
-> $GCHDT,111.03,T*14
-> $GCROT,-81.18,A*0F
-> $CCHPR,115.16,-0.00,-0.03*79
-> $GCHDT,110.97,T*18
-> $GCROT,-80.86,A*09
-> $GPRMC,000043.73,A,5050.700129,N,00044.753963,W,1.2,113.2,230418,4.0,W,A,S*43
-> $GCHDT,110.89,T*17
-> $GCROT,-80.48,A*0B
-> $CCHPR,114.89,-0.00,-0.03*7E
-> $DYSIG,0.00*72
-> $GCHDT,110.82,T*1C
-> $GCROT,-80.14,A*02
-> $GCHDT,110.76,T*17
-> $GCROT,-79.91,A*09
-> $CCHPR,114.89,-0.00,-0.03*7E
-> $GCHDT,110.70,T*11
-> $GCROT,-79.71,A*07
-> $GPRMC,000043.93,A,5050.700102,N,00044.753863,W,1.2,113.0,230418,4.0,W,A,S*47
-> $GCHDT,110.63,T*13
-> $GCROT,-79.55,A*01
-> $CCHPR,114.63,-0.00,-0.03*7A
-> $GCHDT,110.55,T*16
-> $GCROT,-79.37,A*05
-> $GCHDT,110.49,T*1B
-> $GCROT,-79.27,A*04
-> $CCHPR,114.63,-0.00,-0.03*7A
-> $GCHDT,110.43,T*11
-> $GCROT,-79.20,A*03
-> $GCHDT,110.43,T*11
-> $GCROT,-79.20,A*03
-> $GPRMC,000044.14,A,5050.700076,N,00044.753763,W,1.2,112.7,230418,4.0,W,A,S*44
-> $GCHDT,110.37,T*12
-> $GCROT,-79.22,A*01
-> $PXTB,,,*32
-> $CCHPR,114.37,-0.00,-0.03*7B
-> $GCHDT,110.37,T*12
-> $GCROT,-79.22,A*01
-> $GCHDT,110.30,T*15
-> $GCROT,-79.25,A*06
-> $GCHDT,110.24,T*10
-> $GCROT,-79.31,A*03
-> $CCHPR,114.37,0.00,-0.03*56
-> $GPRMC,000044.23,A,5050.700051,N,00044.753671,W,1.2,112.5,230418,4.0,W,A,S*45
-> $GCHDT,110.16,T*11
-> $GCROT,-79.41,A*04
-> $GCHDT,110.08,T*1E
-> $GCROT,-79.53,A*07
-> $CCHPR,114.08,-0.00,-0.03*77
-> $GCHDT,109.99,T*1E
-> $GCROT,-79.67,A*00
-> $GCHDT,109.93,T*14
-> $GCROT,-79.87,A*0E
-> $CCHPR,114.08,0.00,-0.03*5A
-> $GPRMC,000044.51,A,5050.700027,N,00044.753577,W,1.2,112.3,230418,4.0,W,A,S*42
-> $GCHDT,109.85,T*13
-> $GCROT,-80.14,A*02
-> $GCHDT,109.79,T*10
-> $GCROT,-80.35,A*01
-> $CCHPR,113.85,-0.00,-0.03*75
-> $GCHDT,109.70,T*19
-> $GCROT,-80.64,A*05
-> $CCHPR,113.85,-0.00,-0.03*75
-> $GCHDT,109.64,T*1C
-> $GCROT,-80.94,A*0A
-> $GPRMC,000044.73,A,5050.699999,N,00044.753469,W,1.2,112.1,230418,4.0,W,A,S*43
-> $GCHDT,109.55,T*1E
-> $GCROT,-81.33,A*06
-> $CCHPR,113.55,-0.00,-0.03*78
-> $DYSIG,0.00*72
-> $GCHDT,109.47,T*1D
-> $GCROT,-81.73,A*02
-> $GCHDT,109.38,T*15
-> $GCROT,-82.21,A*06
-> $CCHPR,113.55,-0.00,-0.03*78
-> $GPRMC,000044.92,A,5050.699977,N,00044.753383,W,1.2,111.9,230418,4.0,W,A,S*44
-> $GCHDT,109.32,T*1F
-> $GCROT,-82.58,A*08
-> $CCHPR,113.32,-0.00,-0.03*79
-> $GCHDT,109.25,T*19
-> $GCROT,-82.94,A*08
-> $GCHDT,109.17,T*18
-> $GCROT,-83.42,A*02
-> $GCHDT,109.10,T*1F
-> $GCROT,-83.78,A*0B
-> $CCHPR,113.32,-0.00,-0.03*79
-> $GPRMC,000045.12,A,5050.699950,N,00044.753275,W,1.2,111.7,230418,4.0,W,A,S*4E
-> $GCHDT,109.04,T*1A
-> $GCROT,-84.20,A*01
-> $PXTB,,,*32
-> $GCHDT,108.97,T*11
-> $GCROT,-84.62,A*07
-> $CCHPR,113.04,-0.00,-0.03*7C
-> $GCHDT,108.91,T*17
-> $GCROT,-85.03,A*01
-> $GCHDT,108.84,T*13
-> $GCROT,-85.44,A*02
-> $CCHPR,113.04,0.00,-0.03*51
-> $GPRMC,000045.31,A,5050.699926,N,00044.753181,W,1.2,111.5,230418,4.0,W,A,S*44
-> $GCHDT,108.77,T*1F
-> $GCROT,-85.84,A*0E
-> $CCHPR,112.77,-0.00,-0.03*79
-> $GCHDT,108.61,T*18
-> $GCROT,-86.91,A*09
-> $CCHPR,112.77,-0.00,-0.03*79
-> $GCHDT,108.61,T*18
-> $GCROT,-86.91,A*09
-> $GPRMC,000045.51,A,5050.699901,N,00044.753079,W,1.2,111.3,230418,4.0,W,A,S*47
-> $GCHDT,108.48,T*13
-> $GCROT,-87.87,A*0F
-> $GCHDT,108.48,T*13
-> $GCROT,-87.87,A*0F
-> $GCHDT,108.41,T*1A
-> $GCROT,-88.38,A*04
-> $CCHPR,112.48,-0.00,-0.03*75
-> $GCHDT,108.34,T*18
-> $GCROT,-88.87,A*00
-> $GCHDT,108.34,T*18
-> $GCROT,-88.87,A*00
-> $GCHDT,108.25,T*18
-> $GCROT,-89.52,A*09
-> $CCHPR,112.48,-0.00,-0.03*75
-> $GPRMC,000045.71,A,5050.699871,N,00044.752954,W,1.2,111.0,230418,4.0,W,A,S*47
-> $GCHDT,108.15,T*1B
-> $GCROT,-90.16,A*01
-> $CCHPR,112.15,0.00,-0.03*50
-> $DYSIG,0.00*72
-> $GCHDT,108.06,T*19
-> $GCROT,-90.77,A*06
-> $GCHDT,107.96,T*1F
-> $GCROT,-91.40,A*03
-> $CCHPR,112.15,-0.00,-0.03*7D
-> $GPRMC,000045.90,A,5050.699848,N,00044.752860,W,1.2,110.9,230418,4.0,W,A,S*4C
-> $GCHDT,107.87,T*1F
-> $GCROT,-91.87,A*08
-> $GCHDT,107.80,T*18
-> $GCROT,-92.12,A*07
-> $CCHPR,111.87,-0.00,-0.03*75
-> $GCHDT,107.72,T*15
-> $GCROT,-92.28,A*0E
-> $GCHDT,107.65,T*13
-> $GCROT,-92.43,A*03
-> $CCHPR,111.87,-0.00,-0.03*75
-> $GCHDT,107.58,T*1D
-> $GCROT,-92.50,A*01
-> $GPRMC,000046.15,A,5050.699829,N,00044.752782,W,1.2,110.7,230418,4.0,W,A,S*48
-> $GCHDT,107.48,T*1C
-> $GCROT,-92.49,A*09
-> $PXTB,,,*32
-> $CCHPR,111.48,-0.00,-0.03*76
-> $GCHDT,107.41,T*15
-> $GCROT,-92.38,A*0F
-> $CCHPR,111.48,0.00,-0.03*5B
-> $GCHDT,107.34,T*17
-> $GCROT,-92.19,A*0C
-> $GPRMC,000046.31,A,5050.699805,N,00044.752679,W,1.2,110.4,230418,4.0,W,A,S*46
-> $GCHDT,107.27,T*15
-> $GCROT,-91.92,A*0C
-> $GCHDT,107.20,T*12
-> $GCROT,-91.66,A*07
-> $CCHPR,111.27,-0.00,-0.03*7F
-> $GCHDT,107.10,T*11
-> $GCROT,-91.21,A*04
-> $CCHPR,111.27,-0.00,-0.03*7F
-> $GCHDT,107.01,T*11
-> $GCROT,-90.64,A*04
-> $GPRMC,000046.53,A,5050.699781,N,00044.752577,W,1.2,110.1,230418,4.0,W,A,S*49
-> $GCHDT,106.91,T*19
-> $GCROT,-89.98,A*0F
-> $CCHPR,110.91,-0.00,-0.03*73
-> $GCHDT,106.91,T*19
-> $GCROT,-89.98,A*0F
-> $GCHDT,106.77,T*11
-> $GCROT,-88.92,A*04
-> $CCHPR,110.91,0.00,-0.03*5E
-> $GCHDT,106.77,T*11
-> $GCROT,-88.92,A*04
-> $GPRMC,000046.64,A,5050.699756,N,00044.752467,W,1.2,109.7,230418,4.0,W,A,S*49
-> $GCHDT,106.68,T*1F
-> $GCROT,-88.36,A*0A
-> $CCHPR,110.61,-0.00,-0.03*7C
-> $DYSIG,0.00*72
-> $GCHDT,106.54,T*10
-> $GCROT,-87.74,A*03
-> $GCHDT,106.45,T*10
-> $GCROT,-87.44,A*00
-> $CCHPR,110.61,0.00,-0.03*51
-> $GPRMC,000046.90,A,5050.699731,N,00044.752356,W,1.2,109.4,230418,4.0,W,A,S*45
-> $GCHDT,106.36,T*14
-> $GCROT,-87.23,A*01
-> $GCHDT,106.29,T*1A
-> $GCROT,-87.20,A*02
-> $CCHPR,110.36,-0.00,-0.03*7E
-> $GCHDT,106.22,T*11
-> $GCROT,-87.21,A*03
-> $GCHDT,106.16,T*16
-> $GCROT,-87.26,A*04
-> $CCHPR,110.36,-0.00,-0.03*7E
-> $GCHDT,106.09,T*18
-> $GCROT,-87.33,A*00
-> $GPRMC,000047.15,A,5050.699714,N,00044.752276,W,1.2,109.1,230418,4.0,W,A,S*48
-> $GCHDT,106.00,T*11
-> $GCROT,-87.56,A*03
-> $PXTB,,,*32
-> $CCHPR,110.00,-0.00,-0.03*7B
-> $GCHDT,105.93,T*18
-> $GCROT,-87.76,A*01
-> $CCHPR,110.00,-0.00,-0.03*7B
-> $GCHDT,105.86,T*1C
-> $GCROT,-87.99,A*00
-> $GPRMC,000047.31,A,5050.699691,N,00044.752173,W,1.2,108.8,230418,4.0,W,A,S*4C
-> $GCHDT,105.77,T*12
-> $GCROT,-88.31,A*0D
-> $GCHDT,105.68,T*1C
-> $GCROT,-88.66,A*0F
-> $CCHPR,109.77,0.00,-0.03*5E
-> $GCHDT,105.61,T*15
-> $GCROT,-89.01,A*0F
-> $CCHPR,109.77,0.00,-0.03*5E
-> $GCHDT,105.54,T*13
-> $GCROT,-89.37,A*0A
-> $GPRMC,000047.53,A,5050.699667,N,00044.752062,W,1.2,108.5,230418,4.0,W,A,S*4D
-> $GCHDT,105.44,T*12
-> $GCROT,-89.86,A*00
-> $CCHPR,109.44,-0.00,-0.03*73
-> $GCHDT,105.37,T*16
-> $GCROT,-90.25,A*01
-> $GCHDT,105.30,T*11
-> $GCROT,-90.70,A*01
-> $CCHPR,109.44,-0.00,-0.03*73
-> $GCHDT,105.23,T*13
-> $GCROT,-91.16,A*00
-> $GPRMC,000047.73,A,5050.699646,N,00044.751958,W,1.2,108.3,230418,4.0,W,A,S*49
-> $GCHDT,105.14,T*17
-> $GCROT,-91.77,A*07
-> $CCHPR,109.14,-0.00,-0.03*76
-> $DYSIG,0.00*72
-> $GCHDT,105.06,T*14
-> $GCROT,-92.23,A*05
-> $GCHDT,104.97,T*1D
-> $GCROT,-92.85,A*09
-> $CCHPR,109.14,-0.00,-0.03*76
-> $GPRMC,000047.90,A,5050.699623,N,00044.751846,W,1.2,108.0,230418,4.0,W,A,S*4A
-> $GCHDT,104.87,T*1C
-> $GCROT,-93.46,A*07
-> $CCHPR,108.87,-0.00,-0.03*7D
-> $GCHDT,104.72,T*16
-> $GCROT,-94.51,A*06
-> $GCHDT,104.65,T*10
-> $GCROT,-95.04,A*07
-> $CCHPR,108.87,-0.00,-0.03*7D
-> $GCHDT,104.57,T*11
-> $GCROT,-95.56,A*00
-> $GPRMC,000048.15,A,5050.699606,N,00044.751766,W,1.2,107.8,230418,4.0,W,A,S*45
-> $GCHDT,104.48,T*1F
-> $GCROT,-96.33,A*00
-> $PXTB,,,*32
-> $CCHPR,108.48,-0.00,-0.03*7E
-> $GCHDT,104.40,T*17
-> $GCROT,-96.90,A*09
-> $CCHPR,108.48,-0.00,-0.03*7E
-> $GCHDT,104.32,T*12
-> $GCROT,-97.47,A*02
-> $GPRMC,000048.31,A,5050.699585,N,00044.751662,W,1.2,107.5,230418,4.0,W,A,S*43
-> $GCHDT,104.25,T*14
-> $GCROT,-98.04,A*0A
-> $GCHDT,104.17,T*15
-> $GCROT,-98.60,A*08
-> $CCHPR,108.25,-0.00,-0.03*75
-> $GCHDT,104.17,T*15
-> $GCROT,-98.60,A*08
-> $GCHDT,104.07,T*14
-> $GCROT,-99.40,A*0B
-> $CCHPR,108.25,-0.00,-0.03*75
-> $GCHDT,103.96,T*1B
-> $GCROT,-100.19,A*36
-> $GPRMC,000048.53,A,5050.699565,N,00044.751558,W,1.2,107.3,230418,4.0,W,A,S*45
-> $GCHDT,103.86,T*1A
-> $GCROT,-100.97,A*30
-> $CCHPR,107.86,-0.00,-0.03*73
-> $GCHDT,103.78,T*1B
-> $GCROT,-101.50,A*3A
-> $GCHDT,103.70,T*13
-> $GCROT,-101.93,A*35
-> $CCHPR,107.86,-0.00,-0.03*73
-> $GCHDT,103.59,T*18
-> $GCROT,-102.37,A*38
-> $GPRMC,000048.75,A,5050.699543,N,00044.751445,W,1.2,107.1,230418,4.0,W,A,S*4A
-> $GCHDT,103.51,T*10
-> $GCROT,-102.57,A*3E
-> $CCHPR,107.51,-0.00,-0.03*79
-> $DYSIG,0.00*72
-> $GCHDT,103.43,T*13
-> $GCROT,-102.67,A*3D
-> $GCHDT,103.33,T*14
-> $GCROT,-102.76,A*3D
-> $CCHPR,107.51,-0.00,-0.03*79
-> $GPRMC,000048.90,A,5050.699521,N,00044.751332,W,1.2,106.7,230418,4.0,W,A,S*45
-> $GCHDT,103.22,T*14
-> $GCROT,-102.67,A*3D
-> $GCHDT,103.14,T*11
-> $GCROT,-102.48,A*30
-> $CCHPR,107.22,-0.00,-0.03*7D
-> $GCHDT,103.06,T*12
-> $GCROT,-102.20,A*3E
-> $GCHDT,102.98,T*14
-> $GCROT,-101.83,A*34
-> $CCHPR,107.22,-0.00,-0.03*7D
-> $GCHDT,102.90,T*1C
-> $GCROT,-101.38,A*34
-> $GPRMC,000049.15,A,5050.699506,N,00044.751251,W,1.2,106.5,230418,4.0,W,A,S*4A
-> $GCHDT,102.80,T*1D
-> $GCROT,-100.77,A*3E
-> $PXTB,,,*32
-> $CCHPR,106.80,-0.00,-0.03*74
-> $GCHDT,102.80,T*1D
-> $GCROT,-100.77,A*3E
-> $GCHDT,102.72,T*10
-> $GCROT,-100.21,A*3D
-> $CCHPR,106.80,-0.00,-0.03*74
-> $GCHDT,102.64,T*17
-> $GCROT,-99.59,A*03
-> $GPRMC,000049.31,A,5050.699486,N,00044.751145,W,1.2,106.1,230418,4.0,W,A,S*47
-> $GCHDT,102.56,T*16
-> $GCROT,-98.93,A*04
-> $GCHDT,102.48,T*19
-> $GCROT,-98.23,A*0F
-> $CCHPR,106.56,-0.00,-0.03*7F
-> $GCHDT,102.38,T*1E
-> $GCROT,-97.44,A*01
-> $CCHPR,106.56,-0.00,-0.03*7F
-> $GCHDT,102.31,T*17
-> $GCROT,-97.03,A*02
-> $GPRMC,000049.51,A,5050.699467,N,00044.751040,W,1.2,105.7,230418,4.0,W,A,S*4F
-> $GCHDT,102.21,T*16
-> $GCROT,-96.59,A*0C
-> $GCHDT,102.13,T*17
-> $GCROT,-96.35,A*06
-> $CCHPR,106.21,0.00,-0.03*52
-> $GCHDT,102.05,T*10
-> $GCROT,-96.18,A*09
-> $GCHDT,101.98,T*17
-> $GCROT,-96.07,A*07
-> $CCHPR,106.21,-0.00,-0.03*7F
-> $GPRMC,000049.71,A,5050.699449,N,00044.750934,W,1.2,105.3,230418,4.0,W,A,S*4E
-> $GCHDT,101.88,T*16
-> $GCROT,-96.00,A*00
-> $CCHPR,105.88,-0.00,-0.03*7F
-> $DYSIG,0.00*72
-> $GCHDT,101.78,T*19
-> $GCROT,-96.10,A*01
-> $GCHDT,101.68,T*18
-> $GCROT,-96.28,A*0A
-> $CCHPR,105.88,-0.00,-0.03*7F
-> $GPRMC,000049.90,A,5050.699428,N,00044.750811,W,1.2,104.9,230418,4.0,W,A,S*4B
-> $GCHDT,101.58,T*1B
-> $GCROT,-96.52,A*07
-> $GCHDT,101.50,T*13
-> $GCROT,-96.74,A*03
-> $CCHPR,105.58,-0.00,-0.03*72
-> $GCHDT,101.43,T*11
-> $GCROT,-96.99,A*00
-> $GCHDT,101.35,T*10
-> $GCROT,-97.33,A*01
-> $CCHPR,105.58,-0.00,-0.03*72
-> $GCHDT,101.27,T*13
-> $GCROT,-97.69,A*0E
-> $GPRMC,000050.15,A,5050.699414,N,00044.750730,W,1.2,104.6,230418,4.0,W,A,S*42
-> $GCHDT,101.17,T*10
-> $GCROT,-98.18,A*07
-> $PXTB,,,*32
-> $CCHPR,105.17,-0.00,-0.03*79
-> $GCHDT,101.10,T*17
-> $GCROT,-98.62,A*0A
-> $CCHPR,105.17,-0.00,-0.03*79
-> $GCHDT,101.02,T*14
-> $GCROT,-99.06,A*09
-> $GPRMC,000050.31,A,5050.699397,N,00044.750623,W,1.2,104.3,230418,4.0,W,A,S*4E
-> $GCHDT,100.94,T*1A
-> $GCROT,-99.51,A*0B
-> $GCHDT,100.86,T*19
-> $GCROT,-99.96,A*00
-> $CCHPR,104.94,-0.00,-0.03*73
-> $GCHDT,100.76,T*16
-> $GCROT,-100.57,A*3C
-> $CCHPR,104.94,-0.00,-0.03*73
-> $GCHDT,100.68,T*19
-> $GCROT,-101.04,A*3B
-> $GPRMC,000050.51,A,5050.699380,N,00044.750517,W,1.2,104.0,230418,4.0,W,A,S*49
-> $GCHDT,100.58,T*1A
-> $GCROT,-101.72,A*3A
-> $GCHDT,100.50,T*12
-> $GCROT,-102.23,A*3D
-> $CCHPR,104.58,-0.00,-0.03*73
-> $GCHDT,100.42,T*11
-> $GCROT,-102.75,A*3E
-> $GCHDT,100.34,T*10
-> $GCROT,-103.26,A*39
-> $CCHPR,104.58,-0.00,-0.03*73
-> $GPRMC,000050.71,A,5050.699364,N,00044.750410,W,1.2,103.7,230418,4.0,W,A,S*47
-> $GCHDT,100.25,T*10
-> $GCROT,-103.78,A*32
-> $GCHDT,100.17,T*11
-> $GCROT,-104.30,A*39
-> $CCHPR,104.25,-0.00,-0.03*79
-> $DYSIG,5.63*72
-> $GCHDT,100.06,T*11
-> $GCROT,-104.98,A*3B
-> $GCHDT,99.98,T*27
-> $GCROT,-105.54,A*3A
-> $CCHPR,104.25,-0.00,-0.03*79
-> $GPRMC,000050.92,A,5050.699347,N,00044.750303,W,1.2,103.4,230418,4.0,W,A,S*4D
-> $GCHDT,99.87,T*29
-> $GCROT,-106.29,A*33
-> $CCHPR,103.87,-0.00,-0.03*76
-> $GCHDT,99.76,T*27
-> $GCROT,-107.02,A*3B
-> $GCHDT,99.65,T*25
-> $GCROT,-107.76,A*38
-> $CCHPR,103.87,-0.00,-0.03*76
-> $GPRMC,000051.11,A,5050.699329,N,00044.750179,W,1.2,103.1,230418,4.0,W,A,S*45
-> $GCHDT,99.54,T*27
-> $GCROT,-108.49,A*3B
-> $PXTB,,,*32
-> $GCHDT,99.45,T*27
-> $GCROT,-109.08,A*3F
-> $CCHPR,103.54,-0.00,-0.03*78
-> $GCHDT,99.37,T*22
-> $GCROT,-109.67,A*36
-> $GCHDT,99.28,T*2C
-> $GCROT,-110.26,A*3B
-> $CCHPR,103.54,-0.00,-0.03*78
-> $GPRMC,000051.31,A,5050.699317,N,00044.750096,W,1.2,102.9,230418,4.0,W,A,S*43
-> $GCHDT,99.19,T*2E
-> $GCROT,-110.80,A*37
-> $GCHDT,99.11,T*26
-> $GCROT,-111.24,A*38
-> $CCHPR,103.19,0.00,-0.04*5B
-> $GCHDT,98.99,T*27
-> $GCROT,-111.70,A*39
-> $GCHDT,98.87,T*28
-> $GCROT,-112.03,A*3E
-> $CCHPR,103.19,-0.00,-0.04*76
-> $GPRMC,000051.53,A,5050.699301,N,00044.749988,W,1.2,102.6,230418,4.0,W,A,S*41
-> $GCHDT,98.76,T*26
-> $GCROT,-112.21,A*3E
-> $CCHPR,102.76,-0.00,-0.04*7E
-> $GCHDT,98.64,T*25
-> $GCROT,-112.23,A*3C
-> $GCHDT,98.52,T*20
-> $GCROT,-112.06,A*3B
-> $CCHPR,102.76,0.00,-0.04*53
-> $GPRMC,000051.71,A,5050.699283,N,00044.749855,W,1.2,102.2,230418,4.0,W,A,S*4F
-> $GCHDT,98.44,T*27
-> $GCROT,-111.79,A*30
-> $GCHDT,98.35,T*21
-> $GCROT,-111.41,A*3B
-> $CCHPR,102.44,-0.00,-0.04*7F
-> $DYSIG,6.86*7A
-> $GCHDT,98.26,T*23
-> $GCROT,-110.93,A*35
-> $GCHDT,98.17,T*21
-> $GCROT,-110.43,A*38
-> $CCHPR,102.44,0.00,-0.04*52
-> $GPRMC,000051.90,A,5050.699273,N,00044.749780,W,1.2,101.9,230418,4.0,W,A,S*40
-> $GCHDT,98.06,T*21
-> $GCROT,-109.64,A*35
-> $GCHDT,97.95,T*24
-> $GCROT,-108.70,A*31
-> $CCHPR,102.06,-0.00,-0.04*79
-> $GCHDT,97.83,T*23
-> $GCROT,-107.67,A*38
-> $CCHPR,102.06,-0.00,-0.04*79
-> $GCHDT,97.75,T*2A
-> $GCROT,-106.84,A*34
-> $GPRMC,000052.14,A,5050.699256,N,00044.749655,W,1.2,101.4,230418,4.0,W,A,S*4C
-> $GCHDT,97.67,T*29
-> $GCROT,-106.17,A*3E
-> $PXTB,,,*32
-> $CCHPR,101.67,-0.00,-0.04*7D
-> $GCHDT,97.58,T*25
-> $GCROT,-105.62,A*3F
-> $GCHDT,97.50,T*2D
-> $GCROT,-105.17,A*3D
-> $CCHPR,101.67,-0.00,-0.04*7D
-> $GPRMC,000052.23,A,5050.699244,N,00044.749555,W,1.2,100.9,230418,4.0,W,A,S*44
-> $GCHDT,97.39,T*22
-> $GCROT,-104.71,A*3C
-> $GCHDT,97.31,T*2A
-> $GCROT,-104.47,A*39
-> $CCHPR,101.31,-0.00,-0.03*79
-> $GCHDT,97.23,T*29
-> $GCROT,-104.31,A*38
-> $GCHDT,97.12,T*2B
-> $GCROT,-104.32,A*3B
-> $CCHPR,101.31,-0.00,-0.03*79
-> $GCHDT,97.04,T*2C
-> $GCROT,-104.38,A*31
-> $GPRMC,000052.54,A,5050.699230,N,00044.749437,W,1.2,100.5,230418,4.0,W,A,S*4E
-> $GCHDT,96.96,T*26
-> $GCROT,-104.50,A*3F
-> $CCHPR,100.96,-0.00,-0.03*75
-> $GCHDT,96.88,T*29
-> $GCROT,-104.65,A*39
-> $GCHDT,96.79,T*27
-> $GCROT,-104.83,A*31
-> $CCHPR,100.96,-0.00,-0.03*75
-> $GCHDT,96.71,T*2F
-> $GCROT,-105.05,A*3E
-> $GPRMC,000052.73,A,5050.699218,N,00044.749336,W,1.2,100.1,230418,4.0,W,A,S*43
-> $GCHDT,96.60,T*2F
-> $GCROT,-105.46,A*39
-> $CCHPR,100.60,-0.00,-0.03*7C
-> $DYSIG,5.34*70
-> $GCHDT,96.49,T*24
-> $GCROT,-105.92,A*30
-> $GCHDT,96.38,T*22
-> $GCROT,-106.41,A*3D
-> $CCHPR,100.60,0.00,-0.03*51
-> $GPRMC,000052.92,A,5050.699208,N,00044.749243,W,1.2,99.8,230418,4.0,W,A,S*76
-> $GCHDT,96.27,T*2C
-> $GCROT,-106.94,A*35
-> $CCHPR,100.27,-0.00,-0.03*7F
-> $GCHDT,96.19,T*21
-> $GCROT,-107.36,A*3C
-> $GCHDT,96.07,T*2E
-> $GCROT,-107.93,A*33
-> $CCHPR,100.27,-0.00,-0.03*7F
-> $GCHDT,95.99,T*2A
-> $GCROT,-108.37,A*32
-> $GPRMC,000053.14,A,5050.699195,N,00044.749117,W,1.2,99.4,230418,4.0,W,A,S*70
-> $GCHDT,95.91,T*22
-> $GCROT,-108.90,A*3F
-> $PXTB,,,*32
-> $CCHPR,99.91,-0.00,-0.03*43
-> $GCHDT,95.82,T*20
-> $GCROT,-109.43,A*30
-> $GCHDT,95.73,T*2E
-> $GCROT,-109.96,A*38
-> $CCHPR,99.91,0.00,-0.03*6E
-> $GCHDT,95.62,T*2E
-> $GCROT,-110.68,A*31
-> $GPRMC,000053.23,A,5050.699184,N,00044.749017,W,1.2,99.1,230418,4.0,W,A,S*70
-> $GCHDT,95.62,T*2E
-> $GCROT,-110.68,A*31
-> $GCHDT,95.50,T*2F
-> $GCROT,-111.41,A*3B
-> $CCHPR,99.50,-0.00,-0.03*4E
-> $GCHDT,95.39,T*20
-> $GCROT,-112.14,A*38
-> $CCHPR,99.50,-0.00,-0.03*4E
-> $GPRMC,000053.51,A,5050.699174,N,00044.748915,W,1.2,98.8,230418,4.0,W,A,S*78
-> $GCHDT,95.18,T*23
-> $GCROT,-113.57,A*3E
-> $CCHPR,99.18,-0.00,-0.04*45
-> $GCHDT,95.18,T*23
-> $GCROT,-113.57,A*3E
-> $GCHDT,94.97,T*25
-> $GCROT,-115.02,A*38
-> $CCHPR,99.18,-0.00,-0.04*45
-> $GPRMC,000053.73,A,5050.699163,N,00044.748796,W,1.2,98.5,230418,4.0,W,A,S*76
-> $GCHDT,94.76,T*2A
-> $GCROT,-116.53,A*3F
-> $CCHPR,98.76,-0.00,-0.04*4C
-> $DYSIG,5.21*74
-> $GCHDT,94.58,T*26
-> $GCROT,-117.87,A*37
-> $CCHPR,98.76,-0.00,-0.04*4C
-> $GCHDT,94.49,T*26
-> $GCROT,-118.54,A*36
-> $GPRMC,000053.93,A,5050.699152,N,00044.748685,W,1.2,98.2,230418,4.0,W,A,S*7E
-> $GCHDT,94.39,T*21
-> $GCROT,-119.26,A*32
-> $CCHPR,98.39,-0.00,-0.04*47
-> $GCHDT,94.30,T*28
-> $GCROT,-119.99,A*36
-> $GCHDT,94.18,T*22
-> $GCROT,-120.93,A*36
-> $CCHPR,98.39,0.00,-0.04*6A
-> $GCHDT,94.08,T*23
-> $GCROT,-121.57,A*3F
-> $GPRMC,000054.14,A,5050.699142,N,00044.748575,W,1.2,97.9,230418,4.0,W,A,S*7F
-> $GCHDT,93.98,T*2D
-> $GCROT,-122.09,A*37
-> $PXTB,,,*32
-> $CCHPR,97.98,-0.00,-0.04*43
-> $GCHDT,93.86,T*22
-> $GCROT,-122.63,A*3B
-> $CCHPR,97.98,0.00,-0.04*6E
-> $GCHDT,93.67,T*2D
-> $GCROT,-123.15,A*3B
-> $GPRMC,000054.25,A,5050.699133,N,00044.748465,W,1.2,97.6,230418,4.0,W,A,S*74
-> $GCHDT,93.67,T*2D
-> $GCROT,-123.15,A*3B
-> $GCHDT,93.57,T*2E
-> $GCROT,-123.25,A*38
-> $CCHPR,97.57,-0.00,-0.04*40
-> $GCHDT,93.47,T*2F
-> $GCROT,-123.23,A*3E
-> $GCHDT,93.47,T*2F
-> $GCROT,-123.23,A*3E
-> $GCHDT,93.38,T*27
-> $GCROT,-123.11,A*3F
-> $CCHPR,97.57,-0.00,-0.04*40
-> $GCHDT,93.28,T*26
-> $GCROT,-122.89,A*3F
-> $GPRMC,000054.53,A,5050.699124,N,00044.748362,W,1.2,97.2,230418,4.0,W,A,S*77
-> $GCHDT,93.15,T*28
-> $GCROT,-122.47,A*3D
-> $CCHPR,97.15,-0.00,-0.04*46
-> $GCHDT,93.06,T*2A
-> $GCROT,-122.00,A*3E
-> $GCHDT,92.96,T*22
-> $GCROT,-121.41,A*38
-> $CCHPR,97.15,0.00,-0.04*6B
-> $GCHDT,92.84,T*21
-> $GCROT,-120.48,A*30
-> $GPRMC,000054.75,A,5050.699116,N,00044.748250,W,1.2,96.8,230418,4.0,W,A,S*79
-> $GCHDT,92.74,T*2E
-> $GCROT,-119.66,A*36
-> $CCHPR,96.74,-0.00,-0.04*40
-> $DYSIG,8.33*7A
-> $GCHDT,92.65,T*2E
-> $GCROT,-118.78,A*38
-> $GCHDT,92.53,T*2B
-> $GCROT,-117.52,A*3F
-> $CCHPR,96.74,0.00,-0.04*6D
-> $GPRMC,000054.90,A,5050.699107,N,00044.748131,W,1.2,96.2,230418,4.0,W,A,S*7C
-> $GCHDT,92.40,T*29
-> $GCROT,-116.38,A*32
-> $GCHDT,92.28,T*27
-> $GCROT,-115.59,A*36
-> $CCHPR,96.40,-0.00,-0.04*47
-> $GCHDT,92.16,T*2A
-> $GCROT,-115.03,A*39
-> $CCHPR,96.40,-0.00,-0.04*47
-> $GCHDT,92.07,T*2A
-> $GCROT,-114.75,A*39
-> $GPRMC,000055.14,A,5050.699100,N,00044.748028,W,1.2,95.7,230418,4.0,W,A,S*79
-> $GCHDT,91.98,T*2F
-> $GCROT,-114.55,A*3B
-> $PXTB,,,*32
-> $CCHPR,95.98,-0.00,-0.04*41
-> $GCHDT,91.89,T*2F
-> $GCROT,-114.43,A*3C
-> $GCHDT,91.80,T*26
-> $GCROT,-114.37,A*3F
-> $CCHPR,95.98,-0.00,-0.04*41
-> $GCHDT,91.69,T*21
-> $GCROT,-114.37,A*3F
-> $GPRMC,000055.23,A,5050.699094,N,00044.747926,W,1.2,95.3,230418,4.0,W,A,S*7D
-> $GCHDT,91.69,T*21
-> $GCROT,-114.37,A*3F
-> $GCHDT,91.60,T*28
-> $GCROT,-114.49,A*36
-> $CCHPR,95.60,0.00,-0.04*6B
-> $GCHDT,91.51,T*2A
-> $GCROT,-114.66,A*3B
-> $GCHDT,91.42,T*28
-> $GCROT,-114.87,A*34
-> $CCHPR,95.60,-0.00,-0.04*46
-> $GCHDT,91.33,T*2E
-> $GCROT,-115.12,A*39
-> $GPRMC,000055.53,A,5050.699088,N,00044.747814,W,1.2,94.9,230418,4.0,W,A,S*7C
-> $GCHDT,91.21,T*2D
-> $GCROT,-115.50,A*3F
-> $CCHPR,95.21,-0.00,-0.04*43
-> $GCHDT,91.21,T*2D
-> $GCROT,-115.50,A*3F
-> $GCHDT,91.09,T*27
-> $GCROT,-115.93,A*30
-> $GCHDT,90.97,T*21
-> $GCROT,-116.41,A*3C
-> $CCHPR,95.21,-0.00,-0.04*43
-> $GPRMC,000055.71,A,5050.699081,N,00044.747685,W,1.2,94.4,230418,4.0,W,A,S*7E
-> $GCHDT,90.97,T*21
-> $GCROT,-116.41,A*3C
-> $CCHPR,94.88,0.00,-0.04*6C
-> $DYSIG,9.42*7D
-> $GCHDT,90.78,T*20
-> $GCROT,-117.33,A*38
-> $GCHDT,90.69,T*20
-> $GCROT,-117.81,A*31
-> $GCHDT,90.57,T*2D
-> $GCROT,-118.47,A*34
-> $CCHPR,94.88,0.00,-0.04*6C
-> $GPRMC,000055.92,A,5050.699078,N,00044.747607,W,1.2,94.2,230418,4.0,W,A,S*79
-> $GCHDT,90.38,T*24
-> $GCROT,-119.52,A*31
-> $CCHPR,94.48,0.00,-0.04*60
-> $GCHDT,90.29,T*24
-> $GCROT,-120.06,A*3A
-> $GCHDT,90.19,T*27
-> $GCROT,-120.61,A*3B
-> $CCHPR,94.48,-0.00,-0.04*4D
-> $GCHDT,90.10,T*2E
-> $GCROT,-121.16,A*3A
-> $GPRMC,000056.15,A,5050.699073,N,00044.747496,W,1.3,93.8,230418,4.0,W,A,S*78
-> $GCHDT,89.97,T*29
-> $GCROT,-121.90,A*34
-> $PXTB,,,*32
-> $CCHPR,93.97,-0.00,-0.04*48
-> $GCHDT,89.97,T*29
-> $GCROT,-121.90,A*34
-> $GCHDT,89.88,T*27
-> $GCROT,-122.53,A*38
-> $CCHPR,93.97,-0.00,-0.04*48
-> $GCHDT,89.78,T*28
-> $GCROT,-123.16,A*38
-> $GPRMC,000056.31,A,5050.699068,N,00044.747384,W,1.3,93.5,230418,4.0,W,A,S*7D
-> $GCHDT,89.69,T*28
-> $GCROT,-123.79,A*31
-> $GCHDT,89.69,T*28
-> $GCROT,-123.79,A*31
-> $GCHDT,89.59,T*2B
-> $GCROT,-124.42,A*3E
-> $CCHPR,93.69,-0.00,-0.04*49
-> $GCHDT,89.46,T*25
-> $GCROT,-125.26,A*3D
-> $CCHPR,93.69,0.00,-0.04*64
-> $GCHDT,89.36,T*22
-> $GCROT,-125.83,A*32
-> $GPRMC,000056.51,A,5050.699064,N,00044.747271,W,1.3,93.2,230418,4.0,W,A,S*7B
-> $GCHDT,89.23,T*26
-> $GCROT,-126.60,A*3C
-> $CCHPR,93.23,0.00,-0.04*6A
-> $GCHDT,89.03,T*24
-> $GCROT,-127.77,A*3B
-> $GCHDT,88.90,T*2F
-> $GCROT,-128.56,A*37
-> $CCHPR,93.23,0.00,-0.04*6A
-> $GPRMC,000056.73,A,5050.699060,N,00044.747159,W,1.3,92.8,230418,4.0,W,A,S*7D
-> $GCHDT,88.76,T*27
-> $GCROT,-129.35,A*33
-> $CCHPR,92.76,-0.00,-0.04*46
-> $DYSIG,7.08*7D
-> $GCHDT,88.66,T*26
-> $GCROT,-129.94,A*38
-> $GCHDT,88.56,T*25
-> $GCROT,-130.42,A*3B
-> $CCHPR,92.76,-0.00,-0.04*46
-> $GCHDT,88.46,T*24
-> $GCROT,-130.77,A*3D
-> $GPRMC,000056.93,A,5050.699057,N,00044.747038,W,1.3,92.5,230418,4.0,W,A,S*7C
-> $GCHDT,88.36,T*23
-> $GCROT,-131.01,A*3D
-> $CCHPR,92.36,-0.00,-0.04*42
-> $GCHDT,88.36,T*23
-> $GCROT,-131.01,A*3D
-> $GCHDT,88.12,T*25
-> $GCROT,-131.11,A*3C
-> $CCHPR,92.36,0.00,-0.04*6F
-> $GPRMC,000057.14,A,5050.699054,N,00044.746925,W,1.3,92.1,230418,4.0,W,A,S*71
-> $GCHDT,87.91,T*21
-> $GCROT,-130.63,A*38
-> $PXTB,,,*32
-> $CCHPR,91.91,-0.00,-0.04*4C
-> $GCHDT,87.81,T*20
-> $GCROT,-130.18,A*34
-> $GCHDT,87.71,T*2F
-> $GCROT,-129.59,A*39
-> $CCHPR,91.91,-0.00,-0.04*4C
-> $GCHDT,87.71,T*2F
-> $GCROT,-129.59,A*39
-> $GPRMC,000057.23,A,5050.699052,N,00044.746822,W,1.3,91.7,230418,4.0,W,A,S*70
-> $GCHDT,87.57,T*2B
-> $GCROT,-128.65,A*37
-> $GCHDT,87.44,T*29
-> $GCROT,-127.37,A*3F
-> $CCHPR,91.44,-0.00,-0.04*44
-> $GCHDT,87.31,T*2B
-> $GCROT,-125.92,A*32
-> $GCHDT,87.21,T*2A
-> $GCROT,-124.61,A*3F
-> $CCHPR,91.44,-0.00,-0.04*44
-> $GPRMC,000057.51,A,5050.699050,N,00044.746717,W,1.3,91.3,230418,4.0,W,A,S*7A
-> $GCHDT,87.08,T*21
-> $GCROT,-122.77,A*3E
-> $GCHDT,86.99,T*28
-> $GCROT,-121.32,A*3C
-> $CCHPR,91.08,0.00,-0.04*61
-> $GCHDT,86.89,T*29
-> $GCROT,-119.86,A*38
-> $GCHDT,86.80,T*20
-> $GCROT,-118.54,A*36
-> $CCHPR,91.08,0.00,-0.04*61
