-> $GPGLL,5050.708202,N,00044.797613,W,000135.65,A,A*7D
-> $GPRMC,000135.65,A,5050.708202,N,00044.797613,W,0.8,86.7,230418,4.0,W,A,S*75
-> $GCROT,-116.55,A*39
-> $CCHPR,85.69,0.00,-0.02*65
-> $GCROT,-116.55,A*39
-> $CCHPR,85.69,0.00,-0.02*65
-> $GCROT,-116.55,A*39
-> $GPGLL,5050.708202,N,00044.797613,W,000135.65,A,A*7D
-> $GPRMC,000135.65,A,5050.708202,N,00044.797613,W,0.8,86.7,230418,4.0,W,A,S*75
-> $GCROT,-116.55,A*39
-> $CCHPR,85.69,0.00,-0.02*65
-> $GCROT,-116.55,A*39
-> $GCROT,-116.55,A*39
-> $PXTB,,,*32
-> $CCHPR,85.69,0.00,-0.02*65
-> $GCROT,-116.55,A*39
-> $GPGLL,5050.708202,N,00044.797613,W,000135.65,A,A*7D
-> $GPRMC,000135.65,A,5050.708202,N,00044.797613,W,0.8,86.7,230418,4.0,W,A,S*75
-> $GCROT,-116.55,A*39
-> $CCHPR,85.69,0.00,-0.02*65
-> $GCROT,-116.55,A*39
-> $GCROT,-116.55,A*39
-> $CCHPR,85.69,0.00,-0.02*65
-> $GCROT,-116.55,A*39
-> $GPGLL,5050.708202,N,00044.797613,W,000135.65,A,A*7D
-> $GPRMC,000135.65,A,5050.708202,N,00044.797613,W,0.8,86.7,230418,4.0,W,A,S*75
-> $GCROT,-116.55,A*39
-> $CCHPR,85.69,0.00,-0.02*65
-> $GCROT,-116.55,A*39
-> $GCROT,-116.55,A*39
-> $CCHPR,85.69,0.00,-0.02*65
-> $GCROT,-116.55,A*39
-> $DYSIG,10.15*47
-> $GPGLL,5050.708202,N,00044.797613,W,000135.65,A,A*7D
-> $GPRMC,000135.65,A,5050.708202,N,00044.797613,W,0.8,86.7,230418,4.0,W,A,S*75
-> $GCROT,-116.55,A*39
-> $CCHPR,85.69,0.00,-0.02*65
-> $GCROT,-116.55,A*39
-> $GCROT,-116.55,A*39
-> $CCHPR,85.69,0.00,-0.02*65
-> $GCROT,-116.55,A*39
-> $GPGLL,5050.708202,N,00044.797613,W,000135.65,A,A*7D
-> $GPRMC,000135.65,A,5050.708202,N,00044.797613,W,0.8,86.7,230418,4.0,W,A,S*75
-> $GCROT,-116.55,A*39
-> $CCHPR,85.69,0.00,-0.02*65
-> $GCROT,-116.55,A*39
-> $GCROT,-116.55,A*39
-> $CCHPR,85.69,0.00,-0.02*65
-> $GCROT,-116.55,A*39
-> $GPGLL,5050.708202,N,00044.797613,W,000135.65,A,A*7D
-> $GPRMC,000135.65,A,5050.708202,N,00044.797613,W,0.8,86.7,230418,4.0,W,A,S*75
-> $GCROT,-116.55,A*39
-> $CCHPR,85.69,0.00,-0.02*65
-> $GCROT,-116.55,A*39
-> $GCROT,-116.55,A*39
-> $PXTB,,,*32
-> $CCHPR,85.69,0.00,-0.02*65
-> $GCROT,-116.55,A*39
-> $GPGLL,5050.708202,N,00044.797613,W,000135.65,A,A*7D
-> $GPRMC,000135.65,A,5050.708202,N,00044.797613,W,0.8,86.7,230418,4.0,W,A,S*75
-> $GCROT,-116.55,A*39
-> $CCHPR,85.69,0.00,-0.02*65
-> $GCROT,-116.55,A*39
-> $GCROT,-116.55,A*39
-> $CCHPR,85.69,0.00,-0.02*65
-> $GCROT,-116.55,A*39
-> $GPGLL,5050.708202,N,00044.797613,W,000135.65,A,A*7D
-> $GPRMC,000135.65,A,5050.708202,N,00044.797613,W,0.8,86.7,230418,4.0,W,A,S*75
-> $GCROT,-116.55,A*39
-> $CCHPR,85.69,0.00,-0.02*65
-> $GCROT,-116.55,A*39
-> $GCROT,-116.55,A*39
-> $CCHPR,85.69,0.00,-0.02*65
-> $GCROT,-116.55,A*39
-> $DYSIG,11.60*44
-> $GPGLL,5050.708202,N,00044.797613,W,000135.65,A,A*7D
-> $GPRMC,000135.65,A,5050.708202,N,00044.797613,W,0.8,86.7,230418,4.0,W,A,S*75
-> $GCROT,-116.55,A*39
-> $CCHPR,85.69,0.00,-0.02*65
-> $GCROT,-116.55,A*39
-> $GCROT,-116.55,A*39
-> $CCHPR,85.69,0.00,-0.02*65
-> $GCROT,-116.55,A*39
-> $GPGLL,5050.708202,N,00044.797613,W,000135.65,A,A*7D
-> $GPRMC,000135.65,A,5050.708202,N,00044.797613,W,0.8,86.7,230418,4.0,W,A,S*75
-> $GCROT,-116.55,A*39
-> $CCHPR,85.69,0.00,-0.02*65
-> $GCROT,-116.55,A*39
-> $GCROT,-116.55,A*39
-> $CCHPR,85.69,0.00,-0.02*65
-> $GCROT,-116.55,A*39
-> $GPGLL,5050.708202,N,00044.797613,W,000135.65,A,A*7D
-> $GPRMC,000135.65,A,5050.708202,N,00044.797613,W,0.8,86.7,230418,4.0,W,A,S*75
-> $GCROT,-116.55,A*39
-> $CCHPR,85.69,0.00,-0.02*65
-> $GCROT,-116.55,A*39
-> $PXTB,,,*32
-> $CCHPR,85.69,0.00,-0.02*65
-> $GCROT,-116.55,A*39
-> $GPGLL,5050.708202,N,00044.797613,W,000135.65,A,A*7D
-> $GPRMC,000135.65,A,5050.708202,N,00044.797613,W,0.8,86.7,230418,4.0,W,A,S*75
-> $GCROT,-116.55,A*39
-> $CCHPR,85.69,0.00,-0.02*65
-> $GCROT,-116.55,A*39
-> $GCROT,-116.55,A*39
-> $CCHPR,85.69,0.00,-0.02*65
-> $GCROT,-116.55,A*39
-> $GPGLL,5050.708202,N,00044.797613,W,000135.65,A,A*7D
-> $GPRMC,000135.65,A,5050.708202,N,00044.797613,W,0.8,86.7,230418,4.0,W,A,S*75
-> $GCROT,-116.55,A*39
-> $CCHPR,85.69,0.00,-0.02*65
-> $GCROT,-116.55,A*39
-> $GCROT,-116.55,A*39
-> $CCHPR,85.69,0.00,-0.02*65
-> $GCROT,-116.55,A*39
-> $DYSIG,9.32*7A
-> $GPGLL,5050.708202,N,00044.797613,W,000135.65,A,A*7D
-> $GPRMC,000135.65,A,5050.708202,N,00044.797613,W,0.8,86.7,230418,4.0,W,A,S*75
-> $GCROT,-116.55,A*39
-> $CCHPR,85.69,0.00,-0.02*65
-> $GCROT,-116.55,A*39
-> $GCROT,-116.55,A*39
-> $CCHPR,85.69,0.00,-0.02*65
-> $GCROT,-116.55,A*39
-> $GPGLL,5050.708202,N,00044.797613,W,000135.65,A,A*7D
-> $GPRMC,000135.65,A,5050.708202,N,00044.797613,W,0.8,86.7,230418,4.0,W,A,S*75
-> $GCROT,-116.55,A*39
-> $CCHPR,85.69,0.00,-0.02*65
-> $GCROT,-116.55,A*39
-> $GCROT,-116.55,A*39
-> $CCHPR,85.69,0.00,-0.02*65
-> $GCROT,-116.55,A*39
-> $GPGLL,5050.708202,N,00044.797613,W,000135.65,A,A*7D
-> $GPRMC,000135.65,A,5050.708202,N,00044.797613,W,0.8,86.7,230418,4.0,W,A,S*75
-> $GCROT,-116.55,A*39
-> $CCHPR,85.69,0.00,-0.02*65
-> $GCROT,-116.55,A*39
-> $GCROT,-116.55,A*39
-> $PXTB,,,*32
-> $CCHPR,85.69,0.00,-0.02*65
-> $GCROT,-116.55,A*39
-> $GPGLL,5050.708202,N,00044.797613,W,000135.65,A,A*7D
-> $GPRMC,000135.65,A,5050.708202,N,00044.797613,W,0.8,86.7,230418,4.0,W,A,S*75
-> $GCROT,-116.55,A*39
-> $CCHPR,85.69,0.00,-0.02*65
-> $GCROT,-116.55,A*39
-> $GCROT,-116.55,A*39
-> $CCHPR,85.69,0.00,-0.02*65
-> $GCROT,-116.55,A*39
-> $GPGLL,5050.708202,N,00044.797613,W,000135.65,A,A*7D
-> $GPRMC,000135.65,A,5050.708202,N,00044.797613,W,0.8,86.7,230418,4.0,W,A,S*75
-> $GCROT,-116.55,A*39
-> $CCHPR,85.69,0.00,-0.02*65
-> $GCROT,-116.55,A*39
-> $GCROT,-116.55,A*39
-> $CCHPR,85.69,0.00,-0.02*65
-> $GCROT,-116.55,A*39
-> $DYSIG,9.43*7C
-> $GPGLL,5050.708202,N,00044.797613,W,000135.65,A,A*7D
-> $GPRMC,000135.65,A,5050.708202,N,00044.797613,W,0.8,86.7,230418,4.0,W,A,S*75
-> $GCROT,-116.55,A*39
-> $CCHPR,85.69,0.00,-0.02*65
-> $GCROT,-116.55,A*39
-> $GCROT,-116.55,A*39
-> $CCHPR,85.69,0.00,-0.02*65
-> $GCROT,-116.55,A*39
-> $GPGLL,5050.708202,N,00044.797613,W,000135.65,A,A*7D
-> $GPRMC,000135.65,A,5050.708202,N,00044.797613,W,0.8,86.7,230418,4.0,W,A,S*75
-> $GCROT,-116.55,A*39
-> $CCHPR,85.69,0.00,-0.02*65
-> $GCROT,-116.55,A*39
-> $GCROT,-116.55,A*39
-> $CCHPR,85.69,0.00,-0.02*65
-> $GCROT,-116.55,A*39
-> $GPGLL,5050.708202,N,00044.797613,W,000135.65,A,A*7D
-> $GPRMC,000135.65,A,5050.708202,N,00044.797613,W,0.8,86.7,230418,4.0,W,A,S*75
-> $GCROT,-116.55,A*39
-> $CCHPR,85.69,0.00,-0.02*65
-> $GCROT,-116.55,A*39
-> $GCROT,-116.55,A*39
-> $PXTB,,,*32
-> $CCHPR,85.69,0.00,-0.02*65
-> $GCROT,-116.55,A*39
-> $GPGLL,5050.708202,N,00044.797613,W,000135.65,A,A*7D
-> $GPRMC,000135.65,A,5050.708202,N,00044.797613,W,0.8,86.7,230418,4.0,W,A,S*75
-> $GCROT,-116.55,A*39
-> $CCHPR,85.69,0.00,-0.02*65
-> $GCROT,-116.55,A*39
-> $GCROT,-116.55,A*39
-> $CCHPR,85.69,0.00,-0.02*65
-> $GCROT,-116.55,A*39
-> $GPGLL,5050.708202,N,00044.797613,W,000135.65,A,A*7D
-> $GPRMC,000135.65,A,5050.708202,N,00044.797613,W,0.8,86.7,230418,4.0,W,A,S*75
-> $GCROT,-116.55,A*39
-> $CCHPR,85.69,0.00,-0.02*65
-> $GCROT,-116.55,A*39
-> $GCROT,-116.55,A*39
-> $CCHPR,85.69,0.00,-0.02*65
-> $GCROT,-116.55,A*39
-> $DYSIG,9.58*76
-> $GPGLL,5050.708202,N,00044.797613,W,000135.65,A,A*7D
-> $GPRMC,000135.65,A,5050.708202,N,00044.797613,W,0.8,86.7,230418,4.0,W,A,S*75
-> $GCROT,-116.55,A*39
-> $CCHPR,85.69,0.00,-0.02*65
-> $GCROT,-116.55,A*39
-> $GCROT,-116.55,A*39
-> $CCHPR,85.69,0.00,-0.02*65
-> $GCROT,-116.55,A*39
-> $GPGLL,5050.708202,N,00044.797613,W,000135.65,A,A*7D
-> $GPRMC,000135.65,A,5050.708202,N,00044.797613,W,0.8,86.7,230418,4.0,W,A,S*75
-> $GCROT,-116.55,A*39
-> $CCHPR,85.69,0.00,-0.02*65
-> $GCROT,-116.55,A*39
-> $GCROT,-116.55,A*39
-> $CCHPR,85.69,0.00,-0.02*65
-> $GCROT,-116.55,A*39
-> $GPGLL,5050.708202,N,00044.797613,W,000135.65,A,A*7D
-> $GPRMC,000135.65,A,5050.708202,N,00044.797613,W,0.8,86.7,230418,4.0,W,A,S*75
-> $GCROT,-116.55,A*39
-> $CCHPR,85.69,0.00,-0.02*65
-> $GCROT,-116.55,A*39
-> $GCROT,-116.55,A*39
-> $PXTB,,,*32
-> $CCHPR,85.69,0.00,-0.02*65
-> $GCROT,-116.55,A*39
-> $GPGLL,5050.708202,N,00044.797613,W,000135.65,A,A*7D
-> $GPRMC,000135.65,A,5050.708202,N,00044.797613,W,0.8,86.7,230418,4.0,W,A,S*75
-> $GCROT,-116.55,A*39
-> $CCHPR,85.69,0.00,-0.02*65
-> $GCROT,-116.55,A*39
-> $GCROT,-116.55,A*39
-> $CCHPR,85.69,0.00,-0.02*65
-> $GCROT,-116.55,A*39
-> $GPGLL,5050.708202,N,00044.797613,W,000135.65,A,A*7D
-> $GPRMC,000135.65,A,5050.708202,N,00044.797613,W,0.8,86.7,230418,4.0,W,A,S*75
-> $GCROT,-116.55,A*39
-> $CCHPR,85.69,0.00,-0.02*65
-> $GCROT,-116.55,A*39
-> $GCROT,-116.55,A*39
-> $CCHPR,85.69,0.00,-0.02*65
-> $GCROT,-116.55,A*39
-> $DYSIG,10.58*4E
-> $GPGLL,5050.708202,N,00044.797613,W,000135.65,A,A*7D
-> $GPRMC,000135.65,A,5050.708202,N,00044.797613,W,0.8,86.7,230418,4.0,W,A,S*75
-> $GCROT,-116.55,A*39
-> $CCHPR,85.69,0.00,-0.02*65
-> $GCROT,-116.55,A*39
-> $GCROT,-116.55,A*39
-> $CCHPR,85.69,0.00,-0.02*65
-> $GCROT,-116.55,A*39
-> $GPGLL,5050.708202,N,00044.797613,W,000135.65,A,A*7D
-> $GPRMC,000135.65,A,5050.708202,N,00044.797613,W,0.8,86.7,230418,4.0,W,A,S*75
-> $GCROT,-116.55,A*39
-> $CCHPR,85.69,0.00,-0.02*65
-> $GCROT,-116.55,A*39
-> $GCROT,-116.55,A*39
-> $CCHPR,85.69,0.00,-0.02*65
-> $GCROT,-116.55,A*39
-> $GPGLL,5050.708202,N,00044.797613,W,000135.65,A,A*7D
-> $GPRMC,000135.65,A,5050.708202,N,00044.797613,W,0.8,86.7,230418,4.0,W,A,S*75
-> $GCROT,-116.55,A*39
-> $CCHPR,85.69,0.00,-0.02*65
-> $GCROT,-116.55,A*39
-> $GCROT,-116.55,A*39
-> $PXTB,,,*32
-> $CCHPR,85.69,0.00,-0.02*65
-> $GCROT,-116.55,A*39
-> $GPGLL,5050.708202,N,00044.797613,W,000135.65,A,A*7D
-> $GPRMC,000135.65,A,5050.708202,N,00044.797613,W,0.8,86.7,230418,4.0,W,A,S*75
-> $GCROT,-116.55,A*39
-> $CCHPR,85.69,0.00,-0.02*65
-> $GCROT,-116.55,A*39
-> $GCROT,-116.55,A*39
-> $CCHPR,85.69,0.00,-0.02*65
-> $GPGLL,5050.708202,N,00044.797613,W,000135.65,A,A*7D
-> $GPRMC,000135.65,A,5050.708202,N,00044.797613,W,0.8,86.7,230418,4.0,W,A,S*75
-> $GCROT,-116.55,A*39
-> $CCHPR,85.69,0.00,-0.02*65
-> $GCROT,-116.55,A*39
-> $GCROT,-116.55,A*39
-> $CCHPR,85.69,0.00,-0.02*65
-> $GCROT,-116.55,A*39
-> $DYSIG,7.42*73
-> $GPGLL,5050.708202,N,00044.797613,W,000135.65,A,A*7D
-> $GPRMC,000135.65,A,5050.708202,N,00044.797613,W,0.8,86.7,230418,4.0,W,A,S*75
-> $GCROT,-116.55,A*39
-> $CCHPR,85.69,0.00,-0.02*65
-> $GCROT,-116.55,A*39
-> $GCROT,-116.55,A*39
-> $CCHPR,85.69,0.00,-0.02*65
-> $GCROT,-116.55,A*39
-> $GPGLL,5050.708202,N,00044.797613,W,000135.65,A,A*7D
-> $GPRMC,000135.65,A,5050.708202,N,00044.797613,W,0.8,86.7,230418,4.0,W,A,S*75
-> $GCROT,-116.55,A*39
-> $CCHPR,85.69,0.00,-0.02*65
-> $GCROT,-116.55,A*39
-> $GCROT,-116.55,A*39
-> $CCHPR,85.69,0.00,-0.02*65
-> $GCROT,-116.55,A*39
-> $GPGLL,5050.708202,N,00044.797613,W,000135.65,A,A*7D
-> $GPRMC,000135.65,A,5050.708202,N,00044.797613,W,0.8,86.7,230418,4.0,W,A,S*75
-> $GCROT,-116.55,A*39
-> $CCHPR,85.69,0.00,-0.02*65
-> $GCROT,-116.55,A*39
-> $GCROT,-116.55,A*39
-> $PXTB,,,*32
-> $CCHPR,85.69,0.00,-0.02*65
-> $GCROT,-116.55,A*39
-> $GPGLL,5050.708202,N,00044.797613,W,000135.65,A,A*7D
-> $GPRMC,000135.65,A,5050.708202,N,00044.797613,W,0.8,86.7,230418,4.0,W,A,S*75
-> $GCROT,-116.55,A*39
-> $CCHPR,85.69,0.00,-0.02*65
-> $GCROT,-116.55,A*39
-> $GCROT,-116.55,A*39
-> $CCHPR,85.69,0.00,-0.02*65
-> $GCROT,-116.55,A*39
-> $GPGLL,5050.708202,N,00044.797613,W,000135.65,A,A*7D
-> $GPRMC,000135.65,A,5050.708202,N,00044.797613,W,0.8,86.7,230418,4.0,W,A,S*75
-> $GCROT,-116.55,A*39
-> $CCHPR,85.69,0.00,-0.02*65
-> $GCROT,-116.55,A*39
-> $GCROT,-116.55,A*39
-> $CCHPR,85.69,0.00,-0.02*65
-> $GCROT,-116.55,A*39
-> $DYSIG,6.33*74
-> $GPGLL,5050.708202,N,00044.797613,W,000135.65,A,A*7D
-> $GPRMC,000135.65,A,5050.708202,N,00044.797613,W,0.8,86.7,230418,4.0,W,A,S*75
-> $GCROT,-116.55,A*39
-> $CCHPR,85.69,0.00,-0.02*65
-> $GCROT,-116.55,A*39
-> $GCROT,-116.55,A*39
-> $CCHPR,85.69,0.00,-0.02*65
-> $GCROT,-116.55,A*39
-> $GPGLL,5050.708202,N,00044.797613,W,000135.65,A,A*7D
-> $GPRMC,000135.65,A,5050.708202,N,00044.797613,W,0.8,86.7,230418,4.0,W,A,S*75
-> $GCROT,-116.55,A*39
-> $CCHPR,85.69,0.00,-0.02*65
-> $GCROT,-116.55,A*39
-> $GCROT,-116.55,A*39
-> $CCHPR,85.69,0.00,-0.02*65
-> $GCROT,-116.55,A*39
-> $GPGLL,5050.708202,N,00044.797613,W,000135.65,A,A*7D
-> $GPRMC,000135.65,A,5050.708202,N,00044.797613,W,0.8,86.7,230418,4.0,W,A,S*75
-> $GCROT,-116.55,A*39
-> $CCHPR,85.69,0.00,-0.02*65
-> $GCROT,-116.55,A*39
-> $GCROT,-116.55,A*39
-> $PXTB,,,*32
-> $CCHPR,85.69,0.00,-0.02*65
-> $GCROT,-116.55,A*39
-> $GPGLL,5050.708202,N,00044.797613,W,000135.65,A,A*7D
-> $GPRMC,000135.65,A,5050.708202,N,00044.797613,W,0.8,86.7,230418,4.0,W,A,S*75
-> $GCROT,-116.55,A*39
-> $CCHPR,85.69,0.00,-0.02*65
-> $GCROT,-116.55,A*39
-> $GCROT,-116.55,A*39
-> $CCHPR,85.69,0.00,-0.02*65
-> $GCROT,-116.55,A*39
-> $GPGLL,5050.708202,N,00044.797613,W,000135.65,A,A*7D
-> $GPRMC,000135.65,A,5050.708202,N,00044.797613,W,0.8,86.7,230418,4.0,W,A,S*75
-> $GCROT,-116.55,A*39
-> $CCHPR,85.69,0.00,-0.02*65
-> $GCROT,-116.55,A*39
-> $GCROT,-116.55,A*39
-> $CCHPR,85.69,0.00,-0.02*65
-> $GCROT,-116.55,A*39
-> $DYSIG,11.10*43
-> $GPGLL,5050.708202,N,00044.797613,W,000135.65,A,A*7D
-> $GPRMC,000135.65,A,5050.708202,N,00044.797613,W,0.8,86.7,230418,4.0,W,A,S*75
-> $GCROT,-116.55,A*39
-> $CCHPR,85.69,0.00,-0.02*65
-> $GCROT,-116.55,A*39
-> $GCROT,-116.55,A*39
-> $CCHPR,85.69,0.00,-0.02*65
-> $GCROT,-116.55,A*39
-> $GPGLL,5050.708202,N,00044.797613,W,000135.65,A,A*7D
-> $GPRMC,000135.65,A,5050.708202,N,00044.797613,W,0.8,86.7,230418,4.0,W,A,S*75
-> $GCROT,-116.55,A*39
-> $CCHPR,85.69,0.00,-0.02*65
-> $GCROT,-116.55,A*39
-> $CCHPR,85.69,0.00,-0.02*65
-> $GCROT,-116.55,A*39
-> $GPGLL,5050.708202,N,00044.797613,W,000135.65,A,A*7D
-> $GPRMC,000135.65,A,5050.708202,N,00044.797613,W,0.8,86.7,230418,4.0,W,A,S*75
-> $GCROT,-116.55,A*39
-> $CCHPR,85.69,0.00,-0.02*65
-> $GCROT,-116.55,A*39
-> $GCROT,-116.55,A*39
-> $PXTB,,,*32
-> $CCHPR,85.69,0.00,-0.02*65
-> $GCROT,-116.55,A*39
-> $GPGLL,5050.708202,N,00044.797613,W,000135.65,A,A*7D
-> $GPRMC,000135.65,A,5050.708202,N,00044.797613,W,0.8,86.7,230418,4.0,W,A,S*75
-> $GCROT,-116.55,A*39
-> $CCHPR,85.69,0.00,-0.02*65
-> $GCROT,-116.55,A*39
-> $GCROT,-116.55,A*39
-> $GCROT,-116.55,A*39
-> $CCHPR,85.69,0.00,-0.02*65
-> $GPGLL,5050.708202,N,00044.797613,W,000135.65,A,A*7D
-> $GPRMC,000135.65,A,5050.708202,N,00044.797613,W,0.8,86.7,230418,4.0,W,A,S*75
-> $GCROT,-116.55,A*39
-> $CCHPR,85.69,0.00,-0.02*65
-> $GCROT,-116.55,A*39
-> $GCROT,-116.55,A*39
-> $CCHPR,85.69,0.00,-0.02*65
-> $GCROT,-116.55,A*39
-> $DYSIG,6.39*7E
-> $GPGLL,5050.708202,N,00044.797613,W,000135.65,A,A*7D
-> $GPRMC,000135.65,A,5050.708202,N,00044.797613,W,0.8,86.7,230418,4.0,W,A,S*75
-> $GCROT,-116.55,A*39
-> $CCHPR,85.69,0.00,-0.02*65
-> $GCROT,-116.55,A*39
-> $GCROT,-116.55,A*39
-> $CCHPR,85.69,0.00,-0.02*65
-> $GCROT,-116.55,A*39
-> $GPGLL,5050.708202,N,00044.797613,W,000135.65,A,A*7D
-> $GPRMC,000135.65,A,5050.708202,N,00044.797613,W,0.8,86.7,230418,4.0,W,A,S*75
-> $GCROT,-116.55,A*39
-> $CCHPR,85.69,0.00,-0.02*65
-> $GCROT,-116.55,A*39
-> $CCHPR,85.69,0.00,-0.02*65
-> $GCROT,-116.55,A*39
-> $GPGLL,5050.708202,N,00044.797613,W,000135.65,A,A*7D
-> $GPRMC,000135.65,A,5050.708202,N,00044.797613,W,0.8,86.7,230418,4.0,W,A,S*75
-> $GCROT,-116.55,A*39
-> $CCHPR,85.69,0.00,-0.02*65
-> $GCROT,-116.55,A*39
-> $GCROT,-116.55,A*39
-> $PXTB,,,*32
-> $CCHPR,85.69,0.00,-0.02*65
-> $GCROT,-116.55,A*39
-> $GPGLL,5050.708202,N,00044.797613,W,000135.65,A,A*7D
-> $GPRMC,000135.65,A,5050.708202,N,00044.797613,W,0.8,86.7,230418,4.0,W,A,S*75
-> $GCROT,-116.55,A*39
-> $CCHPR,85.69,0.00,-0.02*65
-> $GCROT,-116.55,A*39
-> $GCROT,-116.55,A*39
-> $CCHPR,85.69,0.00,-0.02*65
-> $GCROT,-116.55,A*39
-> $GPGLL,5050.708202,N,00044.797613,W,000135.65,A,A*7D
-> $GPRMC,000135.65,A,5050.708202,N,00044.797613,W,0.8,86.7,230418,4.0,W,A,S*75
-> $GCROT,-116.55,A*39
-> $CCHPR,85.69,0.00,-0.02*65
-> $GCROT,-116.55,A*39
-> $GCROT,-116.55,A*39
-> $CCHPR,85.69,0.00,-0.02*65
-> $GCROT,-116.55,A*39
-> $DYSIG,13.07*47
-> $GPGLL,5050.708202,N,00044.797613,W,000135.65,A,A*7D
-> $GPRMC,000135.65,A,5050.708202,N,00044.797613,W,0.8,86.7,230418,4.0,W,A,S*75
-> $GCROT,-116.55,A*39
-> $CCHPR,85.69,0.00,-0.02*65
-> $GCROT,-116.55,A*39
-> $GCROT,-116.55,A*39
-> $CCHPR,85.69,0.00,-0.02*65
-> $GCROT,-116.55,A*39
-> $GPGLL,5050.708202,N,00044.797613,W,000135.65,A,A*7D
-> $GPRMC,000135.65,A,5050.708202,N,00044.797613,W,0.8,86.7,230418,4.0,W,A,S*75
-> $GCROT,-116.55,A*39
-> $CCHPR,85.69,0.00,-0.02*65
-> $GCROT,-116.55,A*39
-> $CCHPR,85.69,0.00,-0.02*65
-> $GCROT,-116.55,A*39
-> $GPGLL,5050.708202,N,00044.797613,W,000135.65,A,A*7D
-> $GPRMC,000135.65,A,5050.708202,N,00044.797613,W,0.8,86.7,230418,4.0,W,A,S*75
-> $GCROT,-116.55,A*39
-> $CCHPR,85.69,0.00,-0.02*65
-> $GCROT,-116.55,A*39
-> $PXTB,,,*32
-> $CCHPR,85.69,0.00,-0.02*65
-> $GCROT,-116.55,A*39
-> $GPGLL,5050.708202,N,00044.797613,W,000135.65,A,A*7D
-> $GPRMC,000135.65,A,5050.708202,N,00044.797613,W,0.8,86.7,230418,4.0,W,A,S*75
-> $GCROT,-116.55,A*39
-> $CCHPR,85.69,0.00,-0.02*65
-> $GCROT,-116.55,A*39
-> $GCROT,-116.55,A*39
-> $GCROT,-116.55,A*39
-> $CCHPR,85.69,0.00,-0.02*65
-> $GPGLL,5050.708202,N,00044.797613,W,000135.65,A,A*7D
-> $GPRMC,000135.65,A,5050.708202,N,00044.797613,W,0.8,86.7,230418,4.0,W,A,S*75
-> $GCROT,-116.55,A*39
-> $CCHPR,85.69,0.00,-0.02*65
-> $GCROT,-116.55,A*39
-> $GCROT,-116.55,A*39
-> $CCHPR,85.69,0.00,-0.02*65
-> $GCROT,-116.55,A*39
-> $DYSIG,8.39*70
-> $GPGLL,5050.708202,N,00044.797613,W,000135.65,A,A*7D
-> $GPRMC,000135.65,A,5050.708202,N,00044.797613,W,0.8,86.7,230418,4.0,W,A,S*75
-> $GCROT,-116.55,A*39
-> $CCHPR,85.69,0.00,-0.02*65
-> $GCROT,-116.55,A*39
-> $GCROT,-116.55,A*39
-> $CCHPR,85.69,0.00,-0.02*65
-> $GCROT,-116.55,A*39
-> $GPGLL,5050.708202,N,00044.797613,W,000135.65,A,A*7D
-> $GPRMC,000135.65,A,5050.708202,N,00044.797613,W,0.8,86.7,230418,4.0,W,A,S*75
-> $GCROT,-116.55,A*39
-> $CCHPR,85.69,0.00,-0.02*65
-> $GCROT,-116.55,A*39
-> $GCROT,-116.55,A*39
-> $CCHPR,85.69,0.00,-0.02*65
-> $GCROT,-116.55,A*39
-> $GPGLL,5050.708202,N,00044.797613,W,000135.65,A,A*7D
-> $GPRMC,000135.65,A,5050.708202,N,00044.797613,W,0.8,86.7,230418,4.0,W,A,S*75
-> $GCROT,-116.55,A*39
-> $CCHPR,85.69,0.00,-0.02*65
-> $GCROT,-116.55,A*39
-> $GCROT,-116.55,A*39
-> $PXTB,,,*32
-> $CCHPR,85.69,0.00,-0.02*65
-> $GCROT,-116.55,A*39
-> $GPGLL,5050.708202,N,00044.797613,W,000135.65,A,A*7D
-> $GPRMC,000135.65,A,5050.708202,N,00044.797613,W,0.8,86.7,230418,4.0,W,A,S*75
-> $GCROT,-116.55,A*39
-> $CCHPR,85.69,0.00,-0.02*65
-> $GCROT,-116.55,A*39
-> $CCHPR,85.69,0.00,-0.02*65
-> $GCROT,-116.55,A*39
-> $GPGLL,5050.708202,N,00044.797613,W,000135.65,A,A*7D
-> $GPRMC,000135.65,A,5050.708202,N,00044.797613,W,0.8,86.7,230418,4.0,W,A,S*75
-> $GCROT,-116.55,A*39
-> $CCHPR,85.69,0.00,-0.02*65
-> $GCROT,-116.55,A*39
-> $GCROT,-116.55,A*39
-> $CCHPR,85.69,0.00,-0.02*65
-> $GCROT,-116.55,A*39
-> $DYSIG,8.19*72
-> $GPGLL,5050.708202,N,00044.797613,W,000135.65,A,A*7D
-> $GPRMC,000135.65,A,5050.708202,N,00044.797613,W,0.8,86.7,230418,4.0,W,A,S*75
-> $GCROT,-116.55,A*39
-> $CCHPR,85.69,0.00,-0.02*65
-> $GCROT,-116.55,A*39
-> $GCROT,-116.55,A*39
-> $CCHPR,85.69,0.00,-0.02*65
-> $GPGLL,5050.708202,N,00044.797613,W,000135.65,A,A*7D
-> $GPRMC,000135.65,A,5050.708202,N,00044.797613,W,0.8,86.7,230418,4.0,W,A,S*75
-> $GCROT,-116.55,A*39
-> $CCHPR,85.69,0.00,-0.02*65
-> $GCROT,-116.55,A*39
-> $GCROT,-116.55,A*39
-> $GCROT,-116.55,A*39
-> $CCHPR,85.69,0.00,-0.02*65
-> $GPGLL,5050.708202,N,00044.797613,W,000135.65,A,A*7D
-> $GPRMC,000135.65,A,5050.708202,N,00044.797613,W,0.8,86.7,230418,4.0,W,A,S*75
-> $GCROT,-116.55,A*39
-> $GCROT,-116.55,A*39
-> $CCHPR,85.69,0.00,-0.02*65
-> $GCROT,-116.55,A*39
-> $PXTB,,,*32
-> $CCHPR,85.69,0.00,-0.02*65
-> $GCROT,-116.55,A*39
-> $GPGLL,5050.708202,N,00044.797613,W,000135.65,A,A*7D
-> $GPRMC,000135.65,A,5050.708202,N,00044.797613,W,0.8,86.7,230418,4.0,W,A,S*75
-> $GCROT,-116.55,A*39
-> $GCROT,-116.55,A*39
-> $CCHPR,85.69,0.00,-0.02*65
-> $GCROT,-116.55,A*39
-> $CCHPR,85.69,0.00,-0.02*65
-> $GCROT,-116.55,A*39
-> $GPGLL,5050.708202,N,00044.797613,W,000135.65,A,A*7D
-> $GPRMC,000135.65,A,5050.708202,N,00044.797613,W,0.8,86.7,230418,4.0,W,A,S*75
-> $GCROT,-116.55,A*39
-> $GCROT,-116.55,A*39
-> $CCHPR,85.69,0.00,-0.02*65
-> $GCROT,-116.55,A*39
-> $GCROT,-116.55,A*39
-> $CCHPR,85.69,0.00,-0.02*65
-> $DYSIG,5.54*76
-> $GPGLL,5050.708202,N,00044.797613,W,000135.65,A,A*7D
-> $GPRMC,000135.65,A,5050.708202,N,00044.797613,W,0.8,86.7,230418,4.0,W,A,S*75
-> $GCROT,-116.55,A*39
-> $CCHPR,85.69,0.00,-0.02*65
-> $GCROT,-116.55,A*39
-> $GCROT,-116.55,A*39
-> $GCROT,-116.55,A*39
-> $CCHPR,85.69,0.00,-0.02*65
-> $GPGLL,5050.708202,N,00044.797613,W,000135.65,A,A*7D
-> $GPRMC,000135.65,A,5050.708202,N,00044.797613,W,0.8,86.7,230418,4.0,W,A,S*75
-> $GCROT,-116.55,A*39
-> $CCHPR,85.69,0.00,-0.02*65
-> $GCROT,-116.55,A*39
-> $GCROT,-116.55,A*39
-> $GCROT,-116.55,A*39
-> $CCHPR,85.69,0.00,-0.02*65
-> $GPGLL,5050.708202,N,00044.797613,W,000135.65,A,A*7D
-> $GPRMC,000135.65,A,5050.708202,N,00044.797613,W,0.8,86.7,230418,4.0,W,A,S*75
-> $GCROT,-116.55,A*39
-> $GCROT,-116.55,A*39
-> $CCHPR,85.69,0.00,-0.02*65
-> $GCROT,-116.55,A*39
-> $PXTB,,,*32
-> $CCHPR,85.69,0.00,-0.02*65
-> $GCROT,-116.55,A*39
-> $GPGLL,5050.708202,N,00044.797613,W,000135.65,A,A*7D
-> $GPRMC,000135.65,A,5050.708202,N,00044.797613,W,0.8,86.7,230418,4.0,W,A,S*75
-> $GCROT,-116.55,A*39
-> $GCROT,-116.55,A*39
-> $CCHPR,85.69,0.00,-0.02*65
-> $GCROT,-116.55,A*39
-> $CCHPR,85.69,0.00,-0.02*65
-> $GCROT,-116.55,A*39
-> $GPGLL,5050.708202,N,00044.797613,W,000135.65,A,A*7D
-> $GPRMC,000135.65,A,5050.708202,N,00044.797613,W,0.8,86.7,230418,4.0,W,A,S*75
-> $GCROT,-116.55,A*39
-> $GCROT,-116.55,A*39
-> $CCHPR,85.69,0.00,-0.02*65
-> $GCROT,-116.55,A*39
-> $GCROT,-116.55,A*39
-> $CCHPR,85.69,0.00,-0.02*65
-> $DYSIG,11.08*4A
-> $GPGLL,5050.708202,N,00044.797613,W,000135.65,A,A*7D
-> $GPRMC,000135.65,A,5050.708202,N,00044.797613,W,0.8,86.7,230418,4.0,W,A,S*75
-> $GCROT,-116.55,A*39
-> $CCHPR,85.69,0.00,-0.02*65
-> $GCROT,-116.55,A*39
-> $GCROT,-116.55,A*39
-> $GCROT,-116.55,A*39
-> $CCHPR,85.69,0.00,-0.02*65
-> $GPGLL,5050.708202,N,00044.797613,W,000135.65,A,A*7D
-> $GPRMC,000135.65,A,5050.708202,N,00044.797613,W,0.8,86.7,230418,4.0,W,A,S*75
-> $GCROT,-116.55,A*39
-> $CCHPR,85.69,0.00,-0.02*65
-> $GCROT,-116.55,A*39
-> $GCROT,-116.55,A*39
-> $CCHPR,85.69,0.00,-0.02*65
-> $GCROT,-116.55,A*39
-> $GPGLL,5050.708202,N,00044.797613,W,000135.65,A,A*7D
-> $GPRMC,000135.65,A,5050.708202,N,00044.797613,W,0.8,86.7,230418,4.0,W,A,S*75
-> $GCROT,-116.55,A*39
-> $CCHPR,85.69,0.00,-0.02*65
-> $GCROT,-116.55,A*39
-> $GCROT,-116.55,A*39
-> $PXTB,,,*32
-> $CCHPR,85.69,0.00,-0.02*65
-> $GCROT,-116.55,A*39
-> $GPGLL,5050.708202,N,00044.797613,W,000135.65,A,A*7D
-> $GPRMC,000135.65,A,5050.708202,N,00044.797613,W,0.8,86.7,230418,4.0,W,A,S*75
-> $GCROT,-116.55,A*39
-> $GCROT,-116.55,A*39
-> $CCHPR,85.69,0.00,-0.02*65
-> $GCROT,-116.55,A*39
-> $CCHPR,85.69,0.00,-0.02*65
-> $GCROT,-116.55,A*39
-> $GPGLL,5050.708202,N,00044.797613,W,000135.65,A,A*7D
-> $GPRMC,000135.65,A,5050.708202,N,00044.797613,W,0.8,86.7,230418,4.0,W,A,S*75
-> $GCROT,-116.55,A*39
-> $GCROT,-116.55,A*39
-> $CCHPR,85.69,0.00,-0.02*65
-> $GCROT,-116.55,A*39
-> $GCROT,-116.55,A*39
-> $CCHPR,85.69,0.00,-0.02*65
-> $DYSIG,9.05*7E
-> $GPGLL,5050.708202,N,00044.797613,W,000135.65,A,A*7D
-> $GPRMC,000135.65,A,5050.708202,N,00044.797613,W,0.8,86.7,230418,4.0,W,A,S*75
-> $GCROT,-116.55,A*39
-> $CCHPR,85.69,0.00,-0.02*65
-> $GCROT,-116.55,A*39
-> $GCROT,-116.55,A*39
-> $GCROT,-116.55,A*39
-> $CCHPR,85.69,0.00,-0.02*65
-> $GPGLL,5050.708202,N,00044.797613,W,000135.65,A,A*7D
-> $GPRMC,000135.65,A,5050.708202,N,00044.797613,W,0.8,86.7,230418,4.0,W,A,S*75
-> $GCROT,-116.55,A*39
-> $CCHPR,85.69,0.00,-0.02*65
-> $GCROT,-116.55,A*39
-> $GCROT,-116.55,A*39
-> $GCROT,-116.55,A*39
-> $CCHPR,85.69,0.00,-0.02*65
-> $GPGLL,5050.708202,N,00044.797613,W,000135.65,A,A*7D
-> $GPRMC,000135.65,A,5050.708202,N,00044.797613,W,0.8,86.7,230418,4.0,W,A,S*75
-> $GCROT,-116.55,A*39
-> $GCROT,-116.55,A*39
-> $CCHPR,85.69,0.00,-0.02*65
-> $GCROT,-116.55,A*39
-> $PXTB,,,*32
-> $CCHPR,85.69,0.00,-0.02*65
-> $GCROT,-116.55,A*39
-> $GPGLL,5050.708202,N,00044.797613,W,000135.65,A,A*7D
-> $GPRMC,000135.65,A,5050.708202,N,00044.797613,W,0.8,86.7,230418,4.0,W,A,S*75
-> $GCROT,-116.55,A*39
-> $GCROT,-116.55,A*39
-> $CCHPR,85.69,0.00,-0.02*65
-> $GCROT,-116.55,A*39
-> $CCHPR,85.69,0.00,-0.02*65
-> $GCROT,-116.55,A*39
-> $GPGLL,5050.708202,N,00044.797613,W,000135.65,A,A*7D
-> $GPRMC,000135.65,A,5050.708202,N,00044.797613,W,0.8,86.7,230418,4.0,W,A,S*75
-> $GCROT,-116.55,A*39
-> $GCROT,-116.55,A*39
-> $CCHPR,85.69,0.00,-0.02*65
-> $GCROT,-116.55,A*39
-> $GCROT,-116.55,A*39
-> $CCHPR,85.69,0.00,-0.02*65
-> $DYSIG,9.30*78
-> $GPGLL,5050.708202,N,00044.797613,W,000135.65,A,A*7D
-> $GPRMC,000135.65,A,5050.708202,N,00044.797613,W,0.8,86.7,230418,4.0,W,A,S*75
-> $GCROT,-116.55,A*39
-> $CCHPR,85.69,0.00,-0.02*65
-> $GCROT,-116.55,A*39
-> $GCROT,-116.55,A*39
-> $GCROT,-116.55,A*39
-> $CCHPR,85.69,0.00,-0.02*65
-> $GPGLL,5050.708202,N,00044.797613,W,000135.65,A,A*7D
-> $GPRMC,000135.65,A,5050.708202,N,00044.797613,W,0.8,86.7,230418,4.0,W,A,S*75
-> $GCROT,-116.55,A*39
-> $CCHPR,85.69,0.00,-0.02*65
-> $GCROT,-116.55,A*39
-> $GCROT,-116.55,A*39
-> $GCROT,-116.55,A*39
-> $CCHPR,85.69,0.00,-0.02*65
-> $GPGLL,5050.708202,N,00044.797613,W,000135.65,A,A*7D
-> $GPRMC,000135.65,A,5050.708202,N,00044.797613,W,0.8,86.7,230418,4.0,W,A,S*75
-> $GCROT,-116.55,A*39
-> $GCROT,-116.55,A*39
-> $CCHPR,85.69,0.00,-0.02*65
-> $GCROT,-116.55,A*39
-> $PXTB,,,*32
-> $CCHPR,85.69,0.00,-0.02*65
-> $GCROT,-116.55,A*39
-> $GPGLL,5050.708202,N,00044.797613,W,000135.65,A,A*7D
-> $GPRMC,000135.65,A,5050.708202,N,00044.797613,W,0.8,86.7,230418,4.0,W,A,S*75
-> $GCROT,-116.55,A*39
-> $GCROT,-116.55,A*39
-> $CCHPR,85.69,0.00,-0.02*65
-> $GCROT,-116.55,A*39
-> $CCHPR,85.69,0.00,-0.02*65
-> $GCROT,-116.55,A*39
-> $GPGLL,5050.708202,N,00044.797613,W,000135.65,A,A*7D
-> $GPRMC,000135.65,A,5050.708202,N,00044.797613,W,0.8,86.7,230418,4.0,W,A,S*75
-> $GCROT,-116.55,A*39
-> $GCROT,-116.55,A*39
-> $CCHPR,85.69,0.00,-0.02*65
-> $GCROT,-116.55,A*39
-> $GCROT,-116.55,A*39
-> $CCHPR,85.69,0.00,-0.02*65
-> $DYSIG,8.62*7E
-> $GPGLL,5050.708202,N,00044.797613,W,000135.65,A,A*7D
-> $GPRMC,000135.65,A,5050.708202,N,00044.797613,W,0.8,86.7,230418,4.0,W,A,S*75
-> $GCROT,-116.55,A*39
-> $CCHPR,85.69,0.00,-0.02*65
-> $GCROT,-116.55,A*39
-> $GCROT,-116.55,A*39
-> $GCROT,-116.55,A*39
-> $CCHPR,85.69,0.00,-0.02*65
-> $GPGLL,5050.708202,N,00044.797613,W,000135.65,A,A*7D
-> $GPRMC,000135.65,A,5050.708202,N,00044.797613,W,0.8,86.7,230418,4.0,W,A,S*75
-> $GCROT,-116.55,A*39
-> $CCHPR,85.69,0.00,-0.02*65
-> $GCROT,-116.55,A*39
-> $GCROT,-116.55,A*39
-> $GCROT,-116.55,A*39
-> $CCHPR,85.69,0.00,-0.02*65
-> $GPGLL,5050.708202,N,00044.797613,W,000135.65,A,A*7D
-> $GPRMC,000135.65,A,5050.708202,N,00044.797613,W,0.8,86.7,230418,4.0,W,A,S*75
-> $GCROT,-116.55,A*39
-> $GCROT,-116.55,A*39
-> $CCHPR,85.69,0.00,-0.02*65
-> $GCROT,-116.55,A*39
-> $PXTB,,,*32
-> $CCHPR,85.69,0.00,-0.02*65
-> $GCROT,-116.55,A*39
-> $GPGLL,5050.708202,N,00044.797613,W,000135.65,A,A*7D
-> $GPRMC,000135.65,A,5050.708202,N,00044.797613,W,0.8,86.7,230418,4.0,W,A,S*75
-> $GCROT,-116.55,A*39
-> $GCROT,-116.55,A*39
-> $CCHPR,85.69,0.00,-0.02*65
-> $GCROT,-116.55,A*39
-> $CCHPR,85.69,0.00,-0.02*65
-> $GCROT,-116.55,A*39
-> $GPGLL,5050.708202,N,00044.797613,W,000135.65,A,A*7D
-> $GPRMC,000135.65,A,5050.708202,N,00044.797613,W,0.8,86.7,230418,4.0,W,A,S*75
-> $GCROT,-116.55,A*39
-> $GCROT,-116.55,A*39
-> $CCHPR,85.69,0.00,-0.02*65
-> $GCROT,-116.55,A*39
-> $GCROT,-116.55,A*39
-> $CCHPR,85.69,0.00,-0.02*65
-> $DYSIG,11.61*45
-> $GPGLL,5050.708202,N,00044.797613,W,000135.65,A,A*7D
-> $GPRMC,000135.65,A,5050.708202,N,00044.797613,W,0.8,86.7,230418,4.0,W,A,S*75
-> $GCROT,-116.55,A*39
-> $CCHPR,85.69,0.00,-0.02*65
-> $GCROT,-116.55,A*39
-> $GCROT,-116.55,A*39
-> $GCROT,-116.55,A*39
-> $CCHPR,85.69,0.00,-0.02*65
-> $GPGLL,5050.708202,N,00044.797613,W,000135.65,A,A*7D
-> $GPRMC,000135.65,A,5050.708202,N,00044.797613,W,0.8,86.7,230418,4.0,W,A,S*75
-> $GCROT,-116.55,A*39
-> $CCHPR,85.69,0.00,-0.02*65
-> $GCROT,-116.55,A*39
-> $GCROT,-116.55,A*39
-> $GCROT,-116.55,A*39
-> $CCHPR,85.69,0.00,-0.02*65
-> $GPGLL,5050.708202,N,00044.797613,W,000135.65,A,A*7D
-> $GPRMC,000135.65,A,5050.708202,N,00044.797613,W,0.8,86.7,230418,4.0,W,A,S*75
-> $GCROT,-116.55,A*39
-> $GCROT,-116.55,A*39
-> $CCHPR,85.69,0.00,-0.02*65
-> $GCROT,-116.55,A*39
-> $PXTB,,,*32
-> $CCHPR,85.69,0.00,-0.02*65
-> $GCROT,-116.55,A*39
-> $GPGLL,5050.708202,N,00044.797613,W,000135.65,A,A*7D
-> $GPRMC,000135.65,A,5050.708202,N,00044.797613,W,0.8,86.7,230418,4.0,W,A,S*75
-> $GCROT,-116.55,A*39
-> $GCROT,-116.55,A*39
-> $CCHPR,85.69,0.00,-0.02*65
-> $GCROT,-116.55,A*39
-> $CCHPR,85.69,0.00,-0.02*65
-> $GCROT,-116.55,A*39
-> $GPGLL,5050.708202,N,00044.797613,W,000135.65,A,A*7D
-> $GPRMC,000135.65,A,5050.708202,N,00044.797613,W,0.8,86.7,230418,4.0,W,A,S*75
-> $GCROT,-116.55,A*39
-> $GCROT,-116.55,A*39
-> $CCHPR,85.69,0.00,-0.02*65
-> $GCROT,-116.55,A*39
-> $GCROT,-116.55,A*39
-> $CCHPR,85.69,0.00,-0.02*65
-> $DYSIG,7.82*7F
-> $GPGLL,5050.708202,N,00044.797613,W,000135.65,A,A*7D
-> $GPRMC,000135.65,A,5050.708202,N,00044.797613,W,0.8,86.7,230418,4.0,W,A,S*75
-> $GCROT,-116.55,A*39
-> $CCHPR,85.69,0.00,-0.02*65
-> $GCROT,-116.55,A*39
-> $GCROT,-116.55,A*39
-> $GCROT,-116.55,A*39
-> $CCHPR,85.69,0.00,-0.02*65
-> $GPGLL,5050.708202,N,00044.797613,W,000135.65,A,A*7D
-> $GPRMC,000135.65,A,5050.708202,N,00044.797613,W,0.8,86.7,230418,4.0,W,A,S*75
-> $GCROT,-116.55,A*39
-> $CCHPR,85.69,0.00,-0.02*65
-> $GCROT,-116.55,A*39
-> $GCROT,-116.55,A*39
-> $GCROT,-116.55,A*39
-> $CCHPR,85.69,0.00,-0.02*65
-> $GPGLL,5050.708202,N,00044.797613,W,000135.65,A,A*7D
-> $GPRMC,000135.65,A,5050.708202,N,00044.797613,W,0.8,86.7,230418,4.0,W,A,S*75
-> $GCROT,-116.55,A*39
-> $GCROT,-116.55,A*39
-> $CCHPR,85.69,0.00,-0.02*65
-> $GCROT,-116.55,A*39
-> $PXTB,,,*32
-> $CCHPR,85.69,0.00,-0.02*65
-> $GCROT,-116.55,A*39
-> $GPGLL,5050.708202,N,00044.797613,W,000135.65,A,A*7D
-> $GPRMC,000135.65,A,5050.708202,N,00044.797613,W,0.8,86.7,230418,4.0,W,A,S*75
-> $GCROT,-116.55,A*39
-> $GCROT,-116.55,A*39
-> $CCHPR,85.69,0.00,-0.02*65
-> $GCROT,-116.55,A*39
-> $CCHPR,85.69,0.00,-0.02*65
-> $GCROT,-116.55,A*39
-> $GPGLL,5050.708202,N,00044.797613,W,000135.65,A,A*7D
-> $GPRMC,000135.65,A,5050.708202,N,00044.797613,W,0.8,86.7,230418,4.0,W,A,S*75
-> $GCROT,-116.55,A*39
-> $GCROT,-116.55,A*39
-> $CCHPR,85.69,0.00,-0.02*65
-> $GCROT,-116.55,A*39
-> $GPGLL,5050.699892,N,00044.772999,W,000135.76,A,A*73
-> $GPRMC,000135.76,A,5050.699892,N,00044.772999,W,0.0,0.0,230418,4.0,W,A,S*4A
-> $GCROT,0.00,A*12
-> $CCAPM,0,0,0,16*6B
-> $CCHPR,4.00,-0.00,0.00*51
-> $DYSIG,9.31*79
-> $GCROT,0.00,A*12
-> $CCHPR,4.00,-0.00,0.00*51
-> $GCROT,0.00,A*12
-> $GCROT,0.00,A*12
-> $CCHPR,4.00,-0.00,0.00*51
-> $GCROT,0.00,A*12
-> $GPGLL,5050.699892,N,00044.772998,W,000000.48,A,A*78
-> $GPRMC,000000.48,A,5050.699892,N,00044.772998,W,0.0,0.0,230418,4.0,W,A,S*41
-> $GCROT,0.00,A*12
-> $CCHPR,4.00,-0.00,0.00*51
-> $GCROT,0.00,A*12
-> $PXTB,,,*32
-> $GCROT,0.00,A*12
-> $CCHPR,4.00,-0.00,0.00*51
-> $GPGLL,5050.699892,N,00044.772998,W,000000.64,A,A*76
-> $GPRMC,000000.64,A,5050.699892,N,00044.772998,W,0.0,0.0,230418,4.0,W,A,S*4F
-> $GCROT,0.00,A*12
-> $GCROT,0.00,A*12
-> $CCHPR,4.00,-0.00,0.00*51
-> $GCROT,0.00,A*12
-> $GCROT,0.00,A*12
-> $CCHPR,4.00,-0.00,0.00*51
-> $GPGLL,5050.699892,N,00044.772998,W,000000.84,A,A*78
-> $GPRMC,000000.84,A,5050.699892,N,00044.772998,W,0.0,0.0,230418,4.0,W,A,S*41
-> $GCROT,0.00,A*12
-> $GCROT,0.00,A*12
-> $CCHPR,4.00,-0.00,0.00*51
-> $GCROT,0.00,A*12
-> $GCROT,0.00,A*12
-> $CCHPR,4.00,-0.00,0.00*51
-> $DYSIG,9.91*73
-> $GPGLL,5050.699892,N,00044.772998,W,000001.04,A,A*71
-> $GPRMC,000001.04,A,5050.699892,N,00044.772998,W,0.0,0.0,230418,4.0,W,A,S*48
-> $GCROT,0.00,A*12
-> $GCROT,0.00,A*12
-> $CCHPR,4.00,-0.00,0.00*51
-> $GCROT,0.00,A*12
-> $GCROT,0.00,A*12
-> $CCHPR,4.00,-0.00,0.00*51
-> $GCROT,0.00,A*12
-> $GPGLL,5050.699892,N,00044.772998,W,000001.23,A,A*74
-> $GPRMC,000001.23,A,5050.699892,N,00044.772998,W,0.0,0.0,230418,4.0,W,A,S*4D
-> $GCROT,0.00,A*12
-> $GCROT,0.00,A*12
-> $CCHPR,4.00,-0.00,0.00*51
-> $GCROT,0.00,A*12
-> $GCROT,0.00,A*12
-> $CCHPR,4.00,-0.00,0.00*51
-> $GCROT,0.00,A*12
-> $GPGLL,5050.699892,N,00044.772998,W,000001.48,A,A*79
-> $GPRMC,000001.48,A,5050.699892,N,00044.772998,W,0.0,0.0,230418,4.0,W,A,S*40
-> $GCROT,-0.08,A*37
-> $CCHPR,4.00,-0.00,0.00*51
-> $GCROT,-0.14,A*3A
-> $PXTB,,,*32
-> $GCROT,-0.20,A*3D
-> $CCHPR,4.00,-0.00,-0.00*7C
-> $GPGLL,5050.699892,N,00044.772998,W,000001.64,A,A*77
-> $GPRMC,000001.64,A,5050.699892,N,00044.772998,W,0.0,1.0,230418,4.0,W,A,S*4F
-> $GCROT,-0.27,A*3A
-> $CCHPR,4.00,-0.00,-0.00*7C
-> $GCROT,-0.33,A*3F
-> $GCROT,-0.43,A*38
-> $GCROT,-0.50,A*3A
-> $CCHPR,4.00,0.00,-0.00*51
-> $GPGLL,5050.699892,N,00044.772998,W,000001.84,A,A*79
-> $GPRMC,000001.84,A,5050.699892,N,00044.772998,W,0.0,1.1,230418,4.0,W,A,S*40
-> $GCROT,-0.58,A*32
-> $GCROT,-0.66,A*3F
-> $CCHPR,4.00,0.00,-0.00*51
-> $GCROT,-0.74,A*3C
-> $GCROT,-0.84,A*33
-> $CCHPR,4.00,-0.00,-0.00*7C
-> $DYSIG,8.91*72
-> $GPGLL,5050.699892,N,00044.772998,W,000002.04,A,A*72
-> $GPRMC,000002.04,A,5050.699892,N,00044.772998,W,0.0,1.2,230418,4.0,W,A,S*48
-> $GCROT,-0.91,A*37
-> $GCROT,-1.00,A*3E
-> $CCHPR,3.99,-0.00,-0.00*7B
-> $GCROT,-1.08,A*36
-> $CCHPR,3.99,0.00,-0.00*56
-> $GCROT,-1.19,A*36
-> $GPGLL,5050.699893,N,00044.772998,W,000002.25,A,A*70
-> $GPRMC,000002.25,A,5050.699893,N,00044.772998,W,0.0,1.2,230418,4.0,W,A,S*4A
-> $GCROT,-1.37,A*3A
-> $CCHPR,3.99,-0.00,-0.00*7B
-> $GCROT,-1.37,A*3A
-> $GCROT,-1.46,A*3C
-> $GCROT,-1.54,A*3F
-> $CCHPR,3.99,-0.00,-0.00*7B
-> $GCROT,-1.63,A*3B
-> $GPGLL,5050.699893,N,00044.772998,W,000002.48,A,A*7B
-> $GPRMC,000002.48,A,5050.699893,N,00044.772998,W,0.0,1.3,230418,4.0,W,A,S*40
-> $GCROT,-1.75,A*3C
-> $CCHPR,3.99,-0.00,-0.00*7B
-> $GCROT,-1.84,A*32
-> $PXTB,,,*32
-> $GCROT,-1.93,A*34
-> $CCHPR,3.99,0.00,-0.00*56
-> $GPGLL,5050.699893,N,00044.772998,W,000002.64,A,A*75
-> $GPRMC,000002.64,A,5050.699893,N,00044.772998,W,0.0,1.3,230418,4.0,W,A,S*4E
-> $GCROT,-2.02,A*3F
-> $GCROT,-2.02,A*3F
-> $CCHPR,3.99,0.00,-0.00*56
-> $GCROT,-2.12,A*3E
-> $GCROT,-2.24,A*3B
-> $GCROT,-2.34,A*3A
-> $CCHPR,3.98,-0.00,-0.00*7A
-> $GPGLL,5050.699894,N,00044.772998,W,000002.84,A,A*7C
-> $GPRMC,000002.84,A,5050.699894,N,00044.772998,W,0.0,1.3,230418,4.0,W,A,S*47
-> $GCROT,-2.43,A*3A
-> $GCROT,-2.53,A*3B
-> $CCHPR,3.97,-0.00,-0.00*75
-> $GCROT,-2.53,A*3B
-> $GCROT,-2.63,A*38
-> $GCROT,-2.77,A*3D
-> $CCHPR,3.97,0.00,-0.00*58
-> $DYSIG,8.58*77
-> $GPGLL,5050.699895,N,00044.772998,W,000003.04,A,A*74
-> $GPRMC,000003.04,A,5050.699895,N,00044.772998,W,0.0,1.3,230418,4.0,W,A,S*4F
-> $GCROT,-2.88,A*3D
-> $GCROT,-2.99,A*3D
-> $CCHPR,3.96,-0.00,-0.00*74
-> $GCROT,-3.10,A*3D
-> $GCROT,-3.10,A*3D
-> $CCHPR,3.96,-0.00,-0.00*74
-> $GCROT,-3.22,A*3C
-> $GPGLL,5050.699895,N,00044.772998,W,000003.23,A,A*71
-> $GPRMC,000003.23,A,5050.699895,N,00044.772998,W,0.0,1.4,230418,4.0,W,A,S*4D
-> $GCROT,-3.36,A*39
-> $GCROT,-3.47,A*3F
-> $CCHPR,3.95,-0.00,-0.00*77
-> $GCROT,-3.47,A*3F
-> $GCROT,-3.59,A*30
-> $GCROT,-3.70,A*3B
-> $CCHPR,3.95,-0.00,-0.00*77
-> $GCROT,-3.82,A*36
-> $GPGLL,5050.699896,N,00044.772998,W,000003.48,A,A*7F
-> $GPRMC,000003.48,A,5050.699896,N,00044.772998,W,0.0,1.4,230418,4.0,W,A,S*43
-> $GCROT,-3.96,A*33
-> $CCHPR,3.94,-0.00,-0.00*76
-> $GCROT,-4.09,A*32
-> $PXTB,,,*32
-> $GCROT,-4.20,A*39
-> $CCHPR,3.94,-0.00,-0.00*76
-> $GPGLL,5050.699897,N,00044.772998,W,000003.64,A,A*70
-> $GPRMC,000003.64,A,5050.699897,N,00044.772998,W,0.0,1.4,230418,4.0,W,A,S*4C
-> $GCROT,-4.32,A*3A
-> $CCHPR,3.94,0.00,-0.00*5B
-> $GCROT,-4.45,A*3A
-> $GCROT,-4.61,A*3C
-> $GCROT,-4.73,A*3F
-> $CCHPR,3.93,-0.00,-0.00*71
-> $GPGLL,5050.699898,N,00044.772998,W,000003.84,A,A*71
-> $GPRMC,000003.84,A,5050.699898,N,00044.772998,W,0.0,1.4,230418,4.0,W,A,S*4D
-> $GCROT,-4.85,A*36
-> $GCROT,-4.98,A*3A
-> $CCHPR,3.91,-0.00,-0.00*73
-> $GCROT,-5.11,A*3A
-> $GCROT,-5.11,A*3A
-> $GCROT,-5.28,A*30
-> $CCHPR,3.91,-0.00,-0.00*73
-> $DYSIG,7.03*76
-> $GPGLL,5050.699900,N,00044.772998,W,000004.04,A,A*7E
-> $GPRMC,000004.04,A,5050.699900,N,00044.772998,W,0.0,1.4,230418,4.0,W,A,S*42
-> $GCROT,-5.40,A*3E
-> $GCROT,-5.53,A*3C
-> $CCHPR,3.89,-0.00,-0.00*7A
-> $GCROT,-5.72,A*3F
-> $CCHPR,3.89,-0.00,-0.00*7A
-> $GPGLL,5050.699901,N,00044.772998,W,000004.25,A,A*7C
-> $GPRMC,000004.25,A,5050.699901,N,00044.772998,W,0.0,1.4,230418,4.0,W,A,S*40
-> $GCROT,-6.00,A*39
-> $GCROT,-6.14,A*3C
-> $CCHPR,3.87,0.00,-0.00*59
-> $GCROT,-6.29,A*32
-> $GCROT,-6.43,A*3E
-> $CCHPR,3.87,0.00,-0.00*59
-> $GCROT,-6.57,A*3B
-> $GPGLL,5050.699902,N,00044.772998,W,000004.48,A,A*74
-> $GPRMC,000004.48,A,5050.699902,N,00044.772998,W,0.0,1.4,230418,4.0,W,A,S*48
-> $GCROT,-6.89,A*38
-> $PXTB,,,*32
-> $CCHPR,3.85,0.00,-0.00*5B
-> $CCHPR,3.85,-0.00,-0.00*76
-> $GCROT,-6.89,A*38
-> $GPGLL,5050.699902,N,00044.772998,W,000004.48,A,A*74
-> $GPRMC,000004.48,A,5050.699902,N,00044.772998,W,0.0,1.4,230418,4.0,W,A,S*48
-> $GCROT,-7.20,A*3A
-> $GCROT,-7.35,A*3E
-> $CCHPR,3.83,-0.00,-0.00*70
-> $GPGLL,5050.699905,N,00044.772998,W,000004.73,A,A*7B
-> $GPRMC,000004.73,A,5050.699905,N,00044.772998,W,0.0,1.4,230418,4.0,W,A,S*47
-> $GCROT,-7.55,A*38
-> $GCROT,-7.55,A*38
-> $CCHPR,3.83,-0.00,-0.00*70
-> $GCROT,-7.85,A*35
-> $GCROT,-7.85,A*35
-> $CCHPR,3.83,-0.00,-0.00*70
-> $GCROT,-8.01,A*36
-> $GCROT,-8.16,A*30
-> $GPGLL,5050.699907,N,00044.772997,W,000004.98,A,A*73
-> $GPRMC,000004.98,A,5050.699907,N,00044.772997,W,0.0,1.4,230418,4.0,W,A,S*4F
-> $GCROT,-8.38,A*3C
-> $CCHPR,3.80,-0.00,-0.00*73
-> $DYSIG,7.79*7B
-> $GCROT,-8.54,A*36
-> $GCROT,-8.54,A*36
-> $CCHPR,3.80,-0.00,-0.00*73
-> $GCROT,-8.70,A*30
-> $GCROT,-8.87,A*38
-> $GPGLL,5050.699908,N,00044.772997,W,000005.18,A,A*75
-> $GPRMC,000005.18,A,5050.699908,N,00044.772997,W,0.0,1.4,230418,4.0,W,A,S*49
-> $GCROT,-9.04,A*32
-> $CCHPR,3.77,-0.00,-0.00*7B
-> $GCROT,-9.26,A*32
-> $GCROT,-9.44,A*36
-> $CCHPR,3.74,-0.00,-0.00*78
-> $GCROT,-9.61,A*31
-> $GPGLL,5050.699910,N,00044.772997,W,000005.39,A,A*7F
-> $GPRMC,000005.39,A,5050.699910,N,00044.772997,W,0.0,1.4,230418,4.0,W,A,S*43
-> $GCROT,-9.78,A*39
-> $CCHPR,3.74,0.00,-0.00*55
-> $GCROT,-9.95,A*3A
-> $GCROT,-10.19,A*06
-> $CCHPR,3.71,0.00,-0.00*50
-> $GPGLL,5050.699913,N,00044.772997,W,000005.54,A,A*77
-> $GPRMC,000005.54,A,5050.699913,N,00044.772997,W,0.0,1.4,230418,4.0,W,A,S*4B
-> $GCROT,-10.37,A*0A
-> $PXTB,,,*32
-> $GCROT,-10.55,A*0E
-> $CCHPR,3.71,-0.00,-0.00*7D
-> $GCROT,-10.55,A*0E
-> $GCROT,-10.73,A*0A
-> $CCHPR,3.71,-0.00,-0.00*7D
-> $GCROT,-10.91,A*06
-> $GPGLL,5050.699915,N,00044.772997,W,000005.73,A,A*74
-> $GPRMC,000005.73,A,5050.699915,N,00044.772997,W,0.0,1.4,230418,4.0,W,A,S*48
-> $GCROT,-11.15,A*0B
-> $GCROT,-11.34,A*08
-> $CCHPR,3.68,-0.00,-0.00*75
-> $GCROT,-11.54,A*0E
-> $GCROT,-11.73,A*0B
-> $CCHPR,3.64,-0.00,-0.00*79
-> $GPGLL,5050.699918,N,00044.772998,W,000005.89,A,A*73
-> $GPRMC,000005.89,A,5050.699918,N,00044.772998,W,0.1,1.4,230418,4.0,W,A,S*4E
-> $GCROT,-11.92,A*04
-> $GCROT,-12.17,A*0A
-> $CCHPR,3.64,0.00,-0.00*54
-> $DYSIG,10.77*43
-> $GCROT,-12.67,A*0D
-> $CCHPR,3.59,-0.00,-0.00*77
-> $GPGLL,5050.699921,N,00044.772997,W,000006.17,A,A*72
-> $GPRMC,000006.17,A,5050.699921,N,00044.772997,W,0.1,1.4,230418,4.0,W,A,S*4F
-> $GCROT,-12.67,A*0D
-> $CCHPR,3.59,-0.00,-0.00*77
-> $GCROT,-13.05,A*08
-> $GCROT,-13.28,A*07
-> $GCROT,-13.50,A*08
-> $CCHPR,3.55,-0.00,-0.00*7B
-> $GCROT,-13.74,A*0E
-> $GPGLL,5050.699923,N,00044.772997,W,000006.39,A,A*7C
-> $GPRMC,000006.39,A,5050.699923,N,00044.772997,W,0.1,1.4,230418,4.0,W,A,S*41
-> $GCROT,-13.98,A*0C
-> $CCHPR,3.55,-0.00,-0.00*7B
-> $GCROT,-14.21,A*09
-> $GCROT,-14.55,A*0A
-> $CCHPR,3.51,-0.00,-0.00*7F
-> $GPGLL,5050.699927,N,00044.772997,W,000006.54,A,A*73
-> $GPRMC,000006.54,A,5050.699927,N,00044.772997,W,0.1,1.4,230418,4.0,W,A,S*4E
-> $GCROT,-14.79,A*04
-> $PXTB,,,*32
-> $GCROT,-15.06,A*0D
-> $CCHPR,3.51,-0.00,-0.00*7F
-> $GCROT,-15.34,A*0C
-> $CCHPR,3.51,-0.00,-0.00*7F
-> $GCROT,-15.78,A*04
-> $GPGLL,5050.699930,N,00044.772997,W,000006.75,A,A*76
-> $GPRMC,000006.75,A,5050.699930,N,00044.772997,W,0.1,1.4,230418,4.0,W,A,S*4B
-> $GCROT,-16.11,A*08
-> $GCROT,-16.44,A*08
-> $CCHPR,3.46,0.00,-0.00*54
-> $GCROT,-16.76,A*09
-> $GCROT,-17.10,A*08
-> $CCHPR,3.40,-0.00,-0.00*7F
-> $GCROT,-17.43,A*0E
-> $GPGLL,5050.699933,N,00044.772996,W,000006.98,A,A*77
-> $GPRMC,000006.98,A,5050.699933,N,00044.772996,W,0.1,1.4,230418,4.0,W,A,S*4A
-> $GCROT,-17.89,A*08
-> $CCHPR,3.40,-0.00,-0.00*7F
-> $DYSIG,9.98*7A
-> $GCROT,-18.25,A*01
-> $CCHPR,3.40,-0.00,-0.00*7F
-> $GCROT,-18.61,A*01
-> $GCROT,-18.96,A*09
-> $GPGLL,5050.699936,N,00044.772997,W,000007.04,A,A*77
-> $GPRMC,000007.04,A,5050.699936,N,00044.772997,W,0.1,1.4,230418,4.0,W,A,S*4A
-> $CCHPR,3.34,-0.00,-0.00*7C
-> $GCROT,-19.30,A*04
-> $GCROT,-19.74,A*04
-> $GCROT,-20.09,A*04
-> $CCHPR,3.28,-0.00,-0.00*71
-> $GCROT,-20.44,A*0D
-> $GPGLL,5050.699940,N,00044.772996,W,000007.39,A,A*79
-> $GPRMC,000007.39,A,5050.699940,N,00044.772996,W,0.1,1.4,230418,4.0,W,A,S*44
-> $GCROT,-20.80,A*05
-> $CCHPR,3.28,-0.00,-0.00*71
-> $GCROT,-21.16,A*0B
-> $GCROT,-21.65,A*0F
-> $CCHPR,3.21,-0.00,-0.00*78
-> $GPGLL,5050.699944,N,00044.772996,W,000007.54,A,A*76
-> $GPRMC,000007.54,A,5050.699944,N,00044.772996,W,0.1,1.4,230418,4.0,W,A,S*4B
-> $GCROT,-22.03,A*0C
-> $PXTB,,,*32
-> $CCHPR,3.21,-0.00,-0.00*78
-> $GCROT,-22.41,A*0A
-> $GCROT,-22.90,A*06
-> $CCHPR,3.21,0.00,-0.00*55
-> $GCROT,-23.27,A*0B
-> $GPGLL,5050.699948,N,00044.772996,W,000007.75,A,A*79
-> $GPRMC,000007.75,A,5050.699948,N,00044.772996,W,0.1,1.4,230418,4.0,W,A,S*44
-> $GCROT,-23.64,A*0C
-> $GCROT,-24.02,A*0B
-> $CCHPR,3.13,-0.00,-0.00*79
-> $GCROT,-24.42,A*0F
-> $GCROT,-24.81,A*00
-> $CCHPR,3.06,-0.00,-0.00*7D
-> $GCROT,-25.20,A*0A
-> $GPGLL,5050.699953,N,00044.772996,W,000007.98,A,A*70
-> $GPRMC,000007.98,A,5050.699953,N,00044.772996,W,0.1,1.4,230418,4.0,W,A,S*4D
-> $GCROT,-25.73,A*0C
-> $CCHPR,3.06,-0.00,-0.00*7D
-> $DYSIG,11.03*41
-> $GCROT,-26.13,A*09
-> $CCHPR,3.06,-0.00,-0.00*7D
-> $GCROT,-26.52,A*0C
-> $GCROT,-26.90,A*02
-> $GPGLL,5050.699956,N,00044.772996,W,000008.18,A,A*72
-> $GPRMC,000008.18,A,5050.699956,N,00044.772996,W,0.1,1.3,230418,4.0,W,A,S*48
-> $GCROT,-27.31,A*08
-> $CCHPR,2.97,-0.00,-0.00*74
-> $GCROT,-27.83,A*01
-> $CCHPR,2.97,0.00,-0.00*59
-> $GCROT,-28.24,A*03
-> $GCROT,-28.64,A*07
-> $GPGLL,5050.699961,N,00044.772995,W,000008.39,A,A*76
-> $GPRMC,000008.39,A,5050.699961,N,00044.772995,W,0.1,1.3,230418,4.0,W,A,S*4C
-> $GCROT,-29.04,A*00
-> $CCHPR,2.88,0.00,-0.00*57
-> $GCROT,-29.43,A*03
-> $GCROT,-29.97,A*0A
-> $CCHPR,2.78,-0.00,-0.00*75
-> $GPGLL,5050.699967,N,00044.772995,W,000008.54,A,A*7B
-> $GPRMC,000008.54,A,5050.699967,N,00044.772995,W,0.1,1.3,230418,4.0,W,A,S*41
-> $GCROT,-30.38,A*07
-> $PXTB,,,*32
-> $GCROT,-30.80,A*04
-> $CCHPR,2.78,-0.00,-0.00*75
-> $GCROT,-31.37,A*09
-> $CCHPR,2.78,-0.00,-0.00*75
-> $GCROT,-31.66,A*0D
-> $GPGLL,5050.699971,N,00044.772995,W,000008.73,A,A*79
-> $GPRMC,000008.73,A,5050.699971,N,00044.772995,W,0.1,1.2,230418,4.0,W,A,S*42
-> $GCROT,-32.21,A*0D
-> $GCROT,-32.63,A*0B
-> $CCHPR,2.68,0.00,-0.00*59
-> $GCROT,-33.04,A*0B
-> $GCROT,-33.46,A*0D
-> $CCHPR,2.57,-0.00,-0.00*78
-> $GCROT,-33.88,A*0F
-> $GPGLL,5050.699978,N,00044.772995,W,000008.98,A,A*75
-> $GPRMC,000008.98,A,5050.699978,N,00044.772995,W,0.1,1.2,230418,4.0,W,A,S*4E
-> $GCROT,-34.45,A*09
-> $CCHPR,2.57,0.00,-0.00*55
-> $DYSIG,12.68*4F
-> $GCROT,-34.88,A*08
-> $CCHPR,2.57,-0.00,-0.00*78
-> $GCROT,-35.44,A*09
-> $GPGLL,5050.699982,N,00044.772995,W,000009.15,A,A*74
-> $GPRMC,000009.15,A,5050.699982,N,00044.772995,W,0.1,1.1,230418,4.0,W,A,S*4C
-> $GCROT,-35.85,A*04
-> $CCHPR,2.45,-0.00,-0.00*7B
-> $GCROT,-36.28,A*00
-> $GCROT,-36.73,A*0E
-> $CCHPR,2.45,-0.00,-0.00*7B
-> $GCROT,-37.16,A*0C
-> $GPGLL,5050.699988,N,00044.772996,W,000009.25,A,A*7E
-> $GPRMC,000009.25,A,5050.699988,N,00044.772996,W,0.1,1.0,230418,4.0,W,A,S*47
-> $GCROT,-37.58,A*06
-> $CCHPR,2.33,-0.00,-0.00*7A
-> $GCROT,-38.12,A*07
-> $GCROT,-38.67,A*05
-> $CCHPR,2.22,-0.00,-0.00*7A
-> $GCROT,-39.07,A*02
-> $GPGLL,5050.699995,N,00044.772994,W,000009.56,A,A*74
-> $GPRMC,000009.56,A,5050.699995,N,00044.772994,W,0.1,1.0,230418,4.0,W,A,S*4D
-> $GCROT,-39.48,A*09
-> $PXTB,,,*32
-> $CCHPR,2.22,-0.00,-0.00*7A
-> $GCROT,-40.01,A*0A
-> $GCROT,-40.39,A*01
-> $CCHPR,2.09,0.00,-0.00*5E
-> $GCROT,-40.77,A*0B
-> $GPGLL,5050.700001,N,00044.772994,W,000009.76,A,A*73
-> $GPRMC,000009.76,A,5050.700001,N,00044.772994,W,0.1,0.9,230418,4.0,W,A,S*42
-> $GCROT,-41.15,A*0E
-> $CCHPR,2.09,-0.00,-0.00*73
-> $GCROT,-41.52,A*0D
-> $GCROT,-42.04,A*0D
-> $CCHPR,1.95,-0.00,-0.00*75
-> $GCROT,-42.41,A*0C
-> $GPGLL,5050.700008,N,00044.772994,W,000009.96,A,A*74
-> $GPRMC,000009.96,A,5050.700008,N,00044.772994,W,0.1,0.8,230418,4.0,W,A,S*44
-> $GCROT,-42.77,A*09
-> $CCHPR,1.95,-0.00,-0.00*75
-> $GCROT,-43.11,A*08
-> $DYSIG,10.43*44
-> $GCROT,-43.48,A*04
-> $CCHPR,1.95,0.00,-0.00*58
-> $GCROT,-43.94,A*05
-> $GPGLL,5050.700014,N,00044.772994,W,000010.17,A,A*78
-> $GPRMC,000010.17,A,5050.700014,N,00044.772994,W,0.1,0.7,230418,4.0,W,A,S*47
-> $GCROT,-44.27,A*0A
-> $CCHPR,1.77,-0.00,-0.00*79
-> $GCROT,-44.60,A*09
-> $GCROT,-44.94,A*02
-> $CCHPR,1.77,0.00,-0.00*54
-> $GCROT,-45.27,A*0B
-> $GPGLL,5050.700022,N,00044.772994,W,000010.36,A,A*7E
-> $GPRMC,000010.36,A,5050.700022,N,00044.772994,W,0.1,0.6,230418,4.0,W,A,S*40
-> $GCROT,-45.72,A*0B
-> $CCHPR,1.63,-0.00,-0.00*7C
-> $GCROT,-46.05,A*08
-> $GCROT,-46.37,A*09
-> $CCHPR,1.51,-0.00,-0.00*7D
-> $GCROT,-46.68,A*03
-> $GPGLL,5050.700029,N,00044.772994,W,000010.56,A,A*73
-> $GPRMC,000010.56,A,5050.700029,N,00044.772994,W,0.1,0.4,230418,4.0,W,A,S*4F
-> $GCROT,-47.00,A*0C
-> $PXTB,,,*32
-> $CCHPR,1.51,-0.00,-0.00*7D
-> $GCROT,-47.00,A*0C
-> $GCROT,-47.42,A*0A
-> $GCROT,-47.72,A*09
-> $CCHPR,1.35,-0.00,-0.00*7F
-> $GCROT,-48.00,A*03
-> $GCROT,-48.00,A*03
-> $GPGLL,5050.700037,N,00044.772994,W,000010.76,A,A*7E
-> $GPRMC,000010.76,A,5050.700037,N,00044.772994,W,0.1,0.3,230418,4.0,W,A,S*45
-> $GCROT,-48.31,A*01
-> $CCHPR,1.35,-0.00,-0.00*7F
-> $GCROT,-48.61,A*04
-> $GCROT,-49.00,A*02
-> $CCHPR,1.19,0.00,-0.00*5C
-> $GCROT,-49.27,A*07
-> $GPGLL,5050.700045,N,00044.772994,W,000010.96,A,A*75
-> $GPRMC,000010.96,A,5050.700045,N,00044.772994,W,0.1,0.2,230418,4.0,W,A,S*4F
-> $GCROT,-49.57,A*00
-> $CCHPR,1.19,-0.00,-0.00*71
-> $GCROT,-49.86,A*0C
-> $DYSIG,9.22*7B
-> $GCROT,-50.14,A*0F
-> $CCHPR,1.19,-0.00,-0.00*71
-> $GCROT,-50.50,A*0F
-> $GPGLL,5050.700053,N,00044.772994,W,000011.17,A,A*7A
-> $GPRMC,000011.17,A,5050.700053,N,00044.772994,W,0.1,0.0,230418,4.0,W,A,S*42
-> $GCROT,-50.79,A*04
-> $CCHPR,0.98,-0.00,-0.00*79
-> $GCROT,-51.06,A*0D
-> $GCROT,-51.33,A*0B
-> $CCHPR,0.98,-0.00,-0.00*79
-> $GCROT,-51.59,A*07
-> $GPGLL,5050.700062,N,00044.772994,W,000011.36,A,A*7B
-> $GPRMC,000011.36,A,5050.700062,N,00044.772994,W,0.2,359.9,230418,4.0,W,A,S*46
-> $GCROT,-51.96,A*04
-> $CCHPR,0.82,-0.00,-0.00*72
-> $GCROT,-52.23,A*09
-> $GCROT,-52.49,A*05
-> $CCHPR,0.69,0.00,-0.00*5A
-> $GCROT,-52.75,A*0A
-> $GPGLL,5050.700070,N,00044.772994,W,000011.56,A,A*7E
-> $GPRMC,000011.56,A,5050.700070,N,00044.772994,W,0.2,359.7,230418,4.0,W,A,S*4D
-> $GCROT,-53.02,A*0B
-> $PXTB,,,*32
-> $CCHPR,0.69,-0.00,-0.00*77
-> $GCROT,-53.36,A*0C
-> $GCROT,-53.64,A*0B
-> $CCHPR,0.51,-0.00,-0.00*7C
-> $GCROT,-53.91,A*01
-> $GPGLL,5050.700080,N,00044.772994,W,000011.76,A,A*73
-> $GPRMC,000011.76,A,5050.700080,N,00044.772994,W,0.2,359.6,230418,4.0,W,A,S*41
-> $GCROT,-54.17,A*08
-> $CCHPR,0.51,0.00,-0.00*51
-> $GCROT,-54.42,A*08
-> $GCROT,-54.75,A*0C
-> $CCHPR,0.32,-0.00,-0.00*79
-> $GCROT,-54.98,A*0F
-> $GPGLL,5050.700089,N,00044.772994,W,000011.96,A,A*74
-> $GPRMC,000011.96,A,5050.700089,N,00044.772994,W,0.2,359.4,230418,4.0,W,A,S*44
-> $GCROT,-55.23,A*0E
-> $CCHPR,0.32,-0.00,-0.00*79
-> $GCROT,-55.48,A*03
-> $DYSIG,9.34*7C
-> $GCROT,-55.71,A*09
-> $CCHPR,0.32,0.00,-0.00*54
-> $GCROT,-56.01,A*0D
-> $GPGLL,5050.700098,N,00044.772994,W,000012.17,A,A*7E
-> $GPRMC,000012.17,A,5050.700098,N,00044.772994,W,0.2,359.3,230418,4.0,W,A,S*49
-> $GCROT,-56.26,A*08
-> $CCHPR,0.09,-0.00,-0.00*71
-> $GCROT,-56.49,A*01
-> $GCROT,-56.72,A*09
-> $CCHPR,0.09,-0.00,-0.00*71
-> $GCROT,-56.94,A*01
-> $GPGLL,5050.700108,N,00044.772994,W,000012.36,A,A*75
-> $GPRMC,000012.36,A,5050.700108,N,00044.772994,W,0.2,359.1,230418,4.0,W,A,S*40
-> $GCROT,-57.26,A*09
-> $CCHPR,359.92,-0.00,-0.00*7C
-> $GCROT,-57.49,A*00
-> $GCROT,-57.71,A*0B
-> $CCHPR,359.77,-0.00,-0.00*77
-> $GCROT,-57.92,A*06
-> $GPGLL,5050.700118,N,00044.772994,W,000012.56,A,A*72
-> $GPRMC,000012.56,A,5050.700118,N,00044.772994,W,0.2,358.9,230418,4.0,W,A,S*4E
-> $GCROT,-58.13,A*00
-> $PXTB,,,*32
-> $CCHPR,359.77,-0.00,-0.00*77
-> $GCROT,-58.13,A*00
-> $GCROT,-58.39,A*08
-> $GCROT,-58.60,A*04
-> $CCHPR,359.57,0.00,-0.00*58
-> $GCROT,-58.81,A*0B
-> $GPGLL,5050.700129,N,00044.772995,W,000012.76,A,A*73
-> $GPRMC,000012.76,A,5050.700129,N,00044.772995,W,0.2,358.8,230418,4.0,W,A,S*4E
-> $GCROT,-59.01,A*02
-> $CCHPR,359.57,-0.00,-0.00*75
-> $GCROT,-59.20,A*01
-> $GCROT,-59.45,A*02
-> $CCHPR,359.37,-0.00,-0.00*73
-> $GCROT,-59.62,A*07
-> $GPGLL,5050.700140,N,00044.772995,W,000012.96,A,A*72
-> $GPRMC,000012.96,A,5050.700140,N,00044.772995,W,0.2,358.6,230418,4.0,W,A,S*41
-> $GCROT,-59.80,A*0B
-> $CCHPR,359.37,-0.00,-0.00*73
-> $GCROT,-59.96,A*0C
-> $DYSIG,7.12*76
-> $GCROT,-60.12,A*0A
-> $CCHPR,359.37,0.00,-0.00*5E
-> $GCROT,-60.32,A*08
-> $GPGLL,5050.700150,N,00044.772996,W,000013.17,A,A*78
-> $GPRMC,000013.17,A,5050.700150,N,00044.772996,W,0.2,358.4,230418,4.0,W,A,S*49
-> $GCROT,-60.49,A*04
-> $CCHPR,359.12,-0.00,-0.00*74
-> $GCROT,-60.66,A*09
-> $GCROT,-60.82,A*03
-> $CCHPR,359.12,-0.00,-0.00*74
-> $GCROT,-60.97,A*07
-> $GPGLL,5050.700162,N,00044.772996,W,000013.36,A,A*7A
-> $GPRMC,000013.36,A,5050.700162,N,00044.772996,W,0.2,358.2,230418,4.0,W,A,S*4D
-> $GCROT,-61.16,A*0F
-> $CCHPR,358.93,-0.00,-0.00*7C
-> $GCROT,-61.30,A*0B
-> $GCROT,-61.43,A*0F
-> $CCHPR,358.77,-0.00,-0.00*76
-> $GCROT,-61.56,A*0B
-> $GPGLL,5050.700173,N,00044.772997,W,000013.56,A,A*7D
-> $GPRMC,000013.56,A,5050.700173,N,00044.772997,W,0.2,358.1,230418,4.0,W,A,S*49
-> $GCROT,-61.71,A*0E
-> $PXTB,,,*32
-> $CCHPR,358.77,-0.00,-0.00*76
-> $GCROT,-61.90,A*01
-> $GCROT,-62.01,A*0A
-> $CCHPR,358.56,-0.00,-0.00*75
-> $GCROT,-62.11,A*0B
-> $GPGLL,5050.700185,N,00044.772997,W,000013.76,A,A*76
-> $GPRMC,000013.76,A,5050.700185,N,00044.772997,W,0.2,357.9,230418,4.0,W,A,S*45
-> $GCROT,-62.24,A*0D
-> $CCHPR,358.56,-0.00,-0.00*75
-> $GCROT,-62.36,A*0E
-> $GCROT,-62.48,A*07
-> $CCHPR,358.35,-0.00,-0.00*70
-> $GCROT,-62.57,A*09
-> $GPGLL,5050.700198,N,00044.772998,W,000013.96,A,A*7B
-> $GPRMC,000013.96,A,5050.700198,N,00044.772998,W,0.2,357.7,230418,4.0,W,A,S*46
-> $GCROT,-62.67,A*0A
-> $CCHPR,358.35,0.00,-0.00*5D
-> $GCROT,-62.78,A*04
-> $DYSIG,11.64*40
-> $GCROT,-62.88,A*0B
-> $CCHPR,358.35,-0.00,-0.00*70
-> $GCROT,-63.00,A*0A
-> $GPGLL,5050.700209,N,00044.772999,W,000014.17,A,A*7F
-> $GPRMC,000014.17,A,5050.700209,N,00044.772999,W,0.2,357.5,230418,4.0,W,A,S*40
-> $GCROT,-63.09,A*03
-> $CCHPR,358.09,-0.00,-0.00*7F
-> $GCROT,-63.18,A*03
-> $GCROT,-63.26,A*0E
-> $CCHPR,358.09,-0.00,-0.00*7F
-> $GCROT,-63.34,A*0D
-> $GPGLL,5050.700222,N,00044.773000,W,000014.36,A,A*7D
-> $GPRMC,000014.36,A,5050.700222,N,00044.773000,W,0.2,357.3,230418,4.0,W,A,S*44
-> $GCROT,-63.44,A*0A
-> $CCHPR,357.89,-0.00,-0.00*78
-> $GCROT,-63.51,A*0E
-> $GCROT,-63.59,A*06
-> $CCHPR,357.71,0.00,-0.00*52
-> $GPGLL,5050.700236,N,00044.773001,W,000014.56,A,A*7F
-> $GPRMC,000014.56,A,5050.700236,N,00044.773001,W,0.2,357.1,230418,4.0,W,A,S*44
-> $GCROT,-63.69,A*05
-> $PXTB,,,*32
-> $CCHPR,357.71,0.00,-0.00*52
-> $GCROT,-63.77,A*0A
-> $GCROT,-63.77,A*0A
-> $GCROT,-63.79,A*04
-> $CCHPR,357.51,-0.00,-0.00*7D
-> $GCROT,-63.81,A*03
-> $GPGLL,5050.700248,N,00044.773002,W,000014.76,A,A*77
-> $GPRMC,000014.76,A,5050.700248,N,00044.773002,W,0.2,356.9,230418,4.0,W,A,S*45
-> $GCROT,-63.83,A*01
-> $CCHPR,357.51,-0.00,-0.00*7D
-> $GCROT,-63.85,A*07
-> $GCROT,-63.88,A*0A
-> $CCHPR,357.30,-0.00,-0.00*7A
-> $GCROT,-63.89,A*0B
-> $GPGLL,5050.700262,N,00044.773003,W,000014.96,A,A*70
-> $GPRMC,000014.96,A,5050.700262,N,00044.773003,W,0.2,356.7,230418,4.0,W,A,S*4C
-> $GCROT,-63.91,A*02
-> $CCHPR,357.30,-0.00,-0.00*7A
-> $GCROT,-63.92,A*01
-> $DYSIG,6.50*71
-> $GCROT,-63.91,A*02
-> $CCHPR,357.30,-0.00,-0.00*7A
-> $GCROT,-63.89,A*0B
-> $GPGLL,5050.700275,N,00044.773004,W,000015.17,A,A*79
-> $GPRMC,000015.17,A,5050.700275,N,00044.773004,W,0.3,356.5,230418,4.0,W,A,S*46
-> $GCROT,-63.88,A*0A
-> $CCHPR,357.03,0.00,-0.00*57
-> $GCROT,-63.86,A*04
-> $GCROT,-63.85,A*07
-> $CCHPR,357.03,-0.00,-0.00*7A
-> $GCROT,-63.83,A*01
-> $GPGLL,5050.700289,N,00044.773006,W,000015.36,A,A*7B
-> $GPRMC,000015.36,A,5050.700289,N,00044.773006,W,0.3,356.3,230418,4.0,W,A,S*42
-> $GCROT,-63.82,A*00
-> $CCHPR,356.83,-0.00,-0.00*73
-> $GCROT,-63.80,A*02
-> $GCROT,-63.79,A*04
-> $CCHPR,356.66,-0.00,-0.00*78
-> $GCROT,-63.77,A*0A
-> $GPGLL,5050.700303,N,00044.773007,W,000015.56,A,A*7F
-> $GPRMC,000015.56,A,5050.700303,N,00044.773007,W,0.3,356.1,230418,4.0,W,A,S*44
-> $GCROT,-63.73,A*0E
-> $PXTB,,,*32
-> $CCHPR,356.66,0.00,-0.00*55
-> $GCROT,-63.68,A*04
-> $GCROT,-63.63,A*0F
-> $CCHPR,356.45,-0.00,-0.00*79
-> $GCROT,-63.59,A*06
-> $GPGLL,5050.700318,N,00044.773009,W,000015.76,A,A*79
-> $GPRMC,000015.76,A,5050.700318,N,00044.773009,W,0.3,355.9,230418,4.0,W,A,S*49
-> $GCROT,-63.54,A*0B
-> $CCHPR,356.45,-0.00,-0.00*79
-> $GCROT,-63.50,A*0F
-> $GCROT,-63.40,A*0E
-> $CCHPR,356.23,-0.00,-0.00*79
-> $GCROT,-63.33,A*0A
-> $GPGLL,5050.700333,N,00044.773011,W,000015.96,A,A*77
-> $GPRMC,000015.96,A,5050.700333,N,00044.773011,W,0.3,355.7,230418,4.0,W,A,S*49
-> $GCROT,-63.26,A*0E
-> $CCHPR,356.23,0.00,-0.00*54
-> $GCROT,-63.19,A*02
-> $DYSIG,8.79*74
-> $GCROT,-63.10,A*0B
-> $CCHPR,356.23,-0.00,-0.00*79
-> $GCROT,-62.98,A*0A
-> $GPGLL,5050.700347,N,00044.773012,W,000016.17,A,A*7D
-> $GPRMC,000016.17,A,5050.700347,N,00044.773012,W,0.3,355.5,230418,4.0,W,A,S*41
-> $GCROT,-62.89,A*0A
-> $CCHPR,355.97,0.00,-0.00*58
-> $GCROT,-62.81,A*02
-> $GCROT,-62.70,A*0C
-> $CCHPR,355.97,-0.00,-0.00*75
-> $GCROT,-62.60,A*0D
-> $GPGLL,5050.700362,N,00044.773014,W,000016.36,A,A*7F
-> $GPRMC,000016.36,A,5050.700362,N,00044.773014,W,0.3,355.3,230418,4.0,W,A,S*45
-> $GCROT,-62.46,A*09
-> $CCHPR,355.77,-0.00,-0.00*7B
-> $GCROT,-62.37,A*0F
-> $GCROT,-62.25,A*0C
-> $CCHPR,355.61,0.00,-0.00*51
-> $GCROT,-62.13,A*09
-> $GPGLL,5050.700378,N,00044.773016,W,000016.56,A,A*70
-> $GPRMC,000016.56,A,5050.700378,N,00044.773016,W,0.3,355.1,230418,4.0,W,A,S*48
-> $GCROT,-61.99,A*08
-> $PXTB,,,*32
-> $CCHPR,355.61,0.00,-0.00*51
-> $GCROT,-61.82,A*02
-> $GCROT,-61.67,A*09
-> $CCHPR,355.40,-0.00,-0.00*7F
-> $GCROT,-61.52,A*0F
-> $GPGLL,5050.700394,N,00044.773019,W,000016.76,A,A*7F
-> $GPRMC,000016.76,A,5050.700394,N,00044.773019,W,0.3,354.9,230418,4.0,W,A,S*4E
-> $GCROT,-61.38,A*03
-> $CCHPR,355.40,-0.00,-0.00*7F
-> $GCROT,-61.24,A*0E
-> $GCROT,-61.03,A*0B
-> $CCHPR,355.19,-0.00,-0.00*73
-> $GCROT,-60.88,A*09
-> $GPGLL,5050.700410,N,00044.773021,W,000016.96,A,A*71
-> $GPRMC,000016.96,A,5050.700410,N,00044.773021,W,0.3,354.7,230418,4.0,W,A,S*4E
-> $GCROT,-60.70,A*0E
-> $CCHPR,355.19,0.00,-0.00*5E
-> $GCROT,-60.53,A*0F
-> $DYSIG,9.33*7B
-> $GCROT,-60.34,A*0E
-> $CCHPR,355.19,0.00,-0.00*5E
-> $GCROT,-60.09,A*00
-> $GPGLL,5050.700425,N,00044.773023,W,000017.17,A,A*7D
-> $GPRMC,000017.17,A,5050.700425,N,00044.773023,W,0.3,354.5,230418,4.0,W,A,S*40
-> $GCROT,-59.91,A*0B
-> $CCHPR,354.94,-0.00,-0.00*77
-> $GCROT,-59.73,A*07
-> $GCROT,-59.52,A*04
-> $CCHPR,354.94,0.00,-0.00*5A
-> $GCROT,-59.32,A*02
-> $GPGLL,5050.700442,N,00044.773026,W,000017.36,A,A*7A
-> $GPRMC,000017.36,A,5050.700442,N,00044.773026,W,0.3,354.3,230418,4.0,W,A,S*41
-> $GCROT,-59.03,A*00
-> $CCHPR,354.75,-0.00,-0.00*78
-> $GCROT,-58.81,A*0B
-> $GCROT,-58.81,A*0B
-> $GCROT,-58.57,A*00
-> $CCHPR,354.60,0.00,-0.00*51
-> $GCROT,-58.34,A*05
-> $GPGLL,5050.700458,N,00044.773028,W,000017.56,A,A*79
-> $GPRMC,000017.56,A,5050.700458,N,00044.773028,W,0.3,354.1,230418,4.0,W,A,S*40
-> $GCROT,-58.10,A*03
-> $PXTB,,,*32
-> $CCHPR,354.60,-0.00,-0.00*7C
-> $GCROT,-57.78,A*02
-> $GCROT,-57.78,A*02
-> $GCROT,-57.53,A*0B
-> $CCHPR,354.41,-0.00,-0.00*7F
-> $GCROT,-57.28,A*07
-> $GPGLL,5050.700475,N,00044.773031,W,000017.76,A,A*7C
-> $GPRMC,000017.76,A,5050.700475,N,00044.773031,W,0.3,353.9,230418,4.0,W,A,S*4A
-> $GCROT,-57.02,A*0F
-> $CCHPR,354.41,-0.00,-0.00*7F
-> $GCROT,-56.76,A*0D
-> $GCROT,-56.40,A*08
-> $CCHPR,354.21,-0.00,-0.00*79
-> $GCROT,-56.14,A*09
-> $GPGLL,5050.700492,N,00044.773034,W,000017.96,A,A*7E
-> $GPRMC,000017.96,A,5050.700492,N,00044.773034,W,0.3,353.7,230418,4.0,W,A,S*46
-> $GCROT,-55.86,A*01
-> $CCHPR,354.21,-0.00,-0.00*79
-> $GCROT,-55.59,A*03
-> $DYSIG,9.02*79
-> $GCROT,-55.31,A*0D
-> $CCHPR,354.21,0.00,-0.00*54
-> $GCROT,-54.94,A*03
-> $GPGLL,5050.700509,N,00044.773037,W,000018.17,A,A*78
