-> $GPRMC,000045.01,A,5050.704433,N,00044.773071,W,1.1,359.6,230418,4.0,W,A,S*49
-> $GCHDT,359.59,T*15
-> $GCROT,-19.93,A*0D
-> $CCHPR,3.59,-0.00,-0.00*77
-> $CCHPR,3.59,-0.00,-0.00*77
-> $GCHDT,359.59,T*15
-> $GCROT,-19.93,A*0D
-> $GPRMC,000045.01,A,5050.704433,N,00044.773071,W,1.1,359.6,230418,4.0,W,A,S*49
-> $GCHDT,359.59,T*15
-> $GCROT,-19.93,A*0D
-> $CCHPR,3.59,-0.00,-0.00*77
-> $GCHDT,359.59,T*15
-> $GCROT,-19.93,A*0D
-> $GCHDT,359.59,T*15
-> $GCROT,-19.93,A*0D
-> $CCHPR,3.59,-0.00,-0.00*77
-> $GCHDT,359.59,T*15
-> $GCROT,-19.93,A*0D
-> $GPRMC,000045.01,A,5050.704433,N,00044.773071,W,1.1,359.6,230418,4.0,W,A,S*49
-> $GCHDT,359.59,T*15
-> $GCROT,-19.93,A*0D
-> $CCHPR,3.59,-0.00,-0.00*77
-> $GCHDT,359.59,T*15
-> $GCROT,-19.93,A*0D
-> $DYSIG,0.00*72
-> $GCHDT,359.59,T*15
-> $GCROT,-19.93,A*0D
-> $CCHPR,3.59,-0.00,-0.00*77
-> $GPRMC,000045.01,A,5050.704433,N,00044.773071,W,1.1,359.6,230418,4.0,W,A,S*49
-> $GCHDT,359.59,T*15
-> $GCROT,-19.93,A*0D
-> $GCHDT,359.59,T*15
-> $GCROT,-19.93,A*0D
-> $CCHPR,3.59,-0.00,-0.00*77
-> $GCHDT,359.59,T*15
-> $GCROT,-19.93,A*0D
-> $GCHDT,359.59,T*15
-> $GCROT,-19.93,A*0D
-> $CCHPR,3.59,-0.00,-0.00*77
-> $GPRMC,000045.01,A,5050.704433,N,00044.773071,W,1.1,359.6,230418,4.0,W,A,S*49
-> $GCHDT,359.59,T*15
-> $GCROT,-19.93,A*0D
-> $GCHDT,359.59,T*15
-> $GCROT,-19.93,A*0D
-> $CCHPR,3.59,-0.00,-0.00*77
-> $GCHDT,359.59,T*15
-> $GCROT,-19.93,A*0D
-> $PXTB,,,*32
-> $CCHPR,3.59,-0.00,-0.00*77
-> $GPRMC,000045.01,A,5050.704433,N,00044.773071,W,1.1,359.6,230418,4.0,W,A,S*49
-> $GCHDT,359.59,T*15
-> $GCROT,-19.93,A*0D
-> $GCHDT,359.59,T*15
-> $GCROT,-19.93,A*0D
-> $CCHPR,3.59,-0.00,-0.00*77
-> $GCHDT,359.59,T*15
-> $GCROT,-19.93,A*0D
-> $CCHPR,3.59,-0.00,-0.00*77
-> $GPRMC,000045.01,A,5050.704433,N,00044.773071,W,1.1,359.6,230418,4.0,W,A,S*49
-> $GCHDT,359.59,T*15
-> $GCROT,-19.93,A*0D
-> $GCHDT,359.59,T*15
-> $GCROT,-19.93,A*0D
-> $CCHPR,3.59,-0.00,-0.00*77
-> $GCHDT,359.59,T*15
-> $GCROT,-19.93,A*0D
-> $GCHDT,359.59,T*15
-> $GCROT,-19.93,A*0D
-> $CCHPR,3.59,-0.00,-0.00*77
-> $GCHDT,359.59,T*15
-> $GCROT,-19.93,A*0D
-> $GPRMC,000045.01,A,5050.704433,N,00044.773071,W,1.1,359.6,230418,4.0,W,A,S*49
-> $GCHDT,359.59,T*15
-> $GCROT,-19.93,A*0D
-> $CCHPR,3.59,-0.00,-0.00*77
-> $GCHDT,359.59,T*15
-> $GCROT,-19.93,A*0D
-> $DYSIG,4.37*72
-> $GCHDT,359.59,T*15
-> $GCROT,-19.93,A*0D
-> $CCHPR,3.59,-0.00,-0.00*77
-> $GPRMC,000045.01,A,5050.704433,N,00044.773071,W,1.1,359.6,230418,4.0,W,A,S*49
-> $GCHDT,359.59,T*15
-> $GCROT,-19.93,A*0D
-> $GCHDT,359.59,T*15
-> $GCROT,-19.93,A*0D
-> $CCHPR,3.59,-0.00,-0.00*77
-> $GCHDT,359.59,T*15
-> $GCROT,-19.93,A*0D
-> $GCHDT,359.59,T*15
-> $GCROT,-19.93,A*0D
-> $CCHPR,3.59,-0.00,-0.00*77
-> $GPRMC,000045.01,A,5050.704433,N,00044.773071,W,1.1,359.6,230418,4.0,W,A,S*49
-> $GCHDT,359.59,T*15
-> $GCROT,-19.93,A*0D
-> $GCHDT,359.59,T*15
-> $GCROT,-19.93,A*0D
-> $CCHPR,3.59,-0.00,-0.00*77
-> $GCHDT,359.59,T*15
-> $GCROT,-19.93,A*0D
-> $PXTB,,,*32
-> $GCHDT,359.59,T*15
-> $GCROT,-19.93,A*0D
-> $CCHPR,3.59,-0.00,-0.00*77
-> $GPRMC,000045.01,A,5050.704433,N,00044.773071,W,1.1,359.6,230418,4.0,W,A,S*49
-> $GCHDT,359.59,T*15
-> $GCROT,-19.93,A*0D
-> $CCHPR,3.59,-0.00,-0.00*77
-> $GCHDT,359.59,T*15
-> $GCROT,-19.93,A*0D
-> $CCHPR,3.59,-0.00,-0.00*77
-> $GCHDT,359.59,T*15
-> $GCROT,-19.93,A*0D
-> $GPRMC,000045.01,A,5050.704433,N,00044.773071,W,1.1,359.6,230418,4.0,W,A,S*49
-> $GCHDT,359.59,T*15
-> $GCROT,-19.93,A*0D
-> $CCHPR,3.59,-0.00,-0.00*77
-> $GCHDT,359.59,T*15
-> $GCROT,-19.93,A*0D
-> $CCHPR,3.59,-0.00,-0.00*77
-> $GPRMC,000045.01,A,5050.704433,N,00044.773071,W,1.1,359.6,230418,4.0,W,A,S*49
-> $GCHDT,359.59,T*15
-> $GCROT,-19.93,A*0D
-> $CCHPR,3.59,-0.00,-0.00*77
-> $GCHDT,359.59,T*15
-> $GCROT,-19.93,A*0D
-> $DYSIG,0.00*72
-> $GCHDT,359.59,T*15
-> $GCROT,-19.93,A*0D
-> $CCHPR,3.59,-0.00,-0.00*77
-> $GPRMC,000045.01,A,5050.704433,N,00044.773071,W,1.1,359.6,230418,4.0,W,A,S*49
-> $GCHDT,359.59,T*15
-> $GCROT,-19.93,A*0D
-> $GCHDT,359.59,T*15
-> $GCROT,-19.93,A*0D
-> $CCHPR,3.59,-0.00,-0.00*77
-> $GCHDT,359.59,T*15
-> $GCROT,-19.93,A*0D
-> $GCHDT,359.59,T*15
-> $GCROT,-19.93,A*0D
-> $CCHPR,3.59,-0.00,-0.00*77
-> $GCHDT,359.59,T*15
-> $GCROT,-19.93,A*0D
-> $GCHDT,0.00,T*16
-> $GCROT,-0.27,A*3A
-> $PXTB,,,*32
-> $CCAPM,0,0,0,16*6B
-> $CCHPR,4.00,-0.00,0.00*51
-> $GPRMC,000000.18,A,5050.699892,N,00044.772998,W,0.0,5.3,230418,4.0,W,A,S*42
-> $GCHDT,0.00,T*16
-> $GCROT,-0.68,A*31
-> $GCHDT,0.00,T*16
-> $GCROT,-1.94,A*33
-> $GCHDT,0.00,T*16
-> $GCROT,-3.20,A*3E
-> $CCHPR,4.00,-0.00,-0.00*7C
-> $GCHDT,359.99,T*19
-> $GCROT,-4.44,A*3B
-> $GPRMC,000000.34,A,5050.699892,N,00044.772998,W,0.0,5.2,230418,4.0,W,A,S*4D
-> $GCHDT,359.99,T*19
-> $GCROT,-6.05,A*3C
-> $CCHPR,3.99,-0.00,-0.00*7B
-> $GCHDT,359.98,T*18
-> $GCROT,-7.24,A*3E
-> $GCHDT,359.98,T*18
-> $GCROT,-8.43,A*30
-> $CCHPR,3.99,-0.00,-0.00*7B
-> $GCHDT,359.97,T*17
-> $GCROT,-9.59,A*3A
-> $GPRMC,000000.45,A,5050.699892,N,00044.772999,W,0.0,4.9,230418,4.0,W,A,S*40
-> $GCHDT,359.96,T*16
-> $GCROT,-10.74,A*0D
-> $CCHPR,3.97,0.00,-0.00*58
-> $GCHDT,359.95,T*15
-> $GCROT,-12.23,A*0D
-> $GCHDT,359.94,T*14
-> $GCROT,-13.33,A*0D
-> $CCHPR,3.94,-0.00,-0.00*76
-> $DYSIG,0.00*72
-> $GCHDT,359.93,T*13
-> $GCROT,-14.41,A*0F
-> $GPRMC,000000.65,A,5050.699893,N,00044.772999,W,0.0,4.6,230418,4.0,W,A,S*4C
-> $GCHDT,359.92,T*12
-> $GCROT,-15.50,A*0E
-> $CCHPR,3.94,-0.00,-0.00*76
-> $GCHDT,359.90,T*10
-> $GCROT,-16.91,A*00
-> $GCHDT,359.89,T*18
-> $GCROT,-17.96,A*06
-> $CCHPR,3.89,-0.00,-0.00*7A
-> $GCHDT,359.87,T*16
-> $GCROT,-18.99,A*06
-> $GPRMC,000000.95,A,5050.699895,N,00044.772998,W,0.0,4.3,230418,4.0,W,A,S*41
-> $GCHDT,359.86,T*17
-> $GCROT,-20.01,A*0C
-> $CCHPR,3.89,-0.00,-0.00*7A
-> $GCHDT,359.84,T*15
-> $GCROT,-21.34,A*0B
-> $PXTB,,,*32
-> $GCHDT,359.81,T*10
-> $GCROT,-22.67,A*0E
-> $CCHPR,3.81,-0.00,-0.00*72
-> $GCHDT,359.79,T*17
-> $GCROT,-23.65,A*0D
-> $GPRMC,000001.17,A,5050.699896,N,00044.772997,W,0.0,4.0,230418,4.0,W,A,S*45
-> $GCHDT,359.77,T*19
-> $GCROT,-24.93,A*03
-> $CCHPR,3.81,-0.00,-0.00*72
-> $GCHDT,359.75,T*1B
-> $GCROT,-25.87,A*07
-> $GCHDT,359.75,T*1B
-> $GCROT,-25.87,A*07
-> $CCHPR,3.81,-0.00,-0.00*72
-> $GCHDT,359.72,T*1C
-> $GCROT,-27.13,A*08
-> $GCHDT,359.70,T*1E
-> $GCROT,-28.04,A*01
-> $CCHPR,3.72,-0.00,-0.00*7E
-> $GPRMC,000001.39,A,5050.699899,N,00044.772997,W,0.0,3.7,230418,4.0,W,A,S*46
-> $GCHDT,359.68,T*17
-> $GCROT,-28.95,A*09
-> $GCHDT,359.68,T*17
-> $GCROT,-28.95,A*09
-> $GCHDT,359.65,T*1A
-> $GCROT,-30.16,A*0B
-> $CCHPR,3.72,-0.00,-0.00*7E
-> $GCHDT,359.60,T*1F
-> $GCROT,-32.83,A*05
-> $CCHPR,3.62,-0.00,-0.00*7F
-> $GPRMC,000001.43,A,5050.699901,N,00044.772998,W,0.1,3.5,230418,4.0,W,A,S*47
-> $GCHDT,359.60,T*1F
-> $GCROT,-32.83,A*05
-> $GCHDT,359.57,T*1B
-> $GCROT,-34.57,A*0A
-> $GCHDT,359.54,T*18
-> $GCROT,-36.27,A*0F
-> $CCHPR,3.62,-0.00,-0.00*7F
-> $DYSIG,0.00*72
-> $GCHDT,359.51,T*1D
-> $GCROT,-38.47,A*07
-> $GCHDT,359.47,T*1A
-> $GCROT,-40.12,A*08
-> $CCHPR,3.51,-0.00,-0.00*7F
-> $GPRMC,000001.79,A,5050.699905,N,00044.772997,W,0.1,3.4,230418,4.0,W,A,S*44
-> $GCHDT,359.44,T*19
-> $GCROT,-41.38,A*01
-> $GCHDT,359.40,T*1D
-> $GCROT,-43.00,A*08
-> $CCHPR,3.40,-0.00,-0.00*7F
-> $GCHDT,359.35,T*1F
-> $GCROT,-44.62,A*0B
-> $GPRMC,000001.96,A,5050.699908,N,00044.772996,W,0.1,3.2,230418,4.0,W,A,S*4F
-> $GCHDT,359.32,T*18
-> $GCROT,-45.80,A*06
-> $CCHPR,3.40,-0.00,-0.00*7F
-> $GCHDT,359.28,T*13
-> $GCROT,-46.95,A*01
-> $GCHDT,359.23,T*18
-> $GCROT,-48.43,A*04
-> $PXTB,,,*32
-> $CCHPR,3.23,-0.00,-0.00*7A
-> $GCHDT,359.19,T*11
-> $GCROT,-49.53,A*04
-> $GPRMC,000002.17,A,5050.699913,N,00044.772996,W,0.1,2.9,230418,4.0,W,A,S*45
-> $GCHDT,359.14,T*1C
-> $GCROT,-50.94,A*07
-> $CCHPR,3.23,-0.00,-0.00*7A
-> $GCHDT,359.09,T*10
-> $GCROT,-52.35,A*0E
-> $CCHPR,3.23,0.00,-0.00*57
-> $GCHDT,359.03,T*1A
-> $GCROT,-53.69,A*06
-> $GPRMC,000002.35,A,5050.699920,N,00044.772995,W,0.1,2.5,230418,4.0,W,A,S*4A
-> $CCHPR,3.03,-0.00,-0.00*78
-> $GCHDT,358.95,T*14
-> $GCROT,-55.67,A*0E
-> $GCHDT,358.90,T*11
-> $GCROT,-56.63,A*09
-> $CCHPR,3.03,-0.00,-0.00*78
-> $GCHDT,358.86,T*16
-> $GCROT,-57.59,A*01
-> $GCHDT,358.81,T*11
-> $GCROT,-58.54,A*03
-> $CCHPR,2.86,-0.00,-0.00*74
-> $GPRMC,000002.59,A,5050.699924,N,00044.772995,W,0.1,2.3,230418,4.0,W,A,S*42
-> $GCHDT,358.77,T*18
-> $GCROT,-59.50,A*06
-> $GCHDT,358.72,T*1D
-> $GCROT,-60.45,A*08
-> $CCHPR,2.86,-0.00,-0.00*74
-> $DYSIG,0.00*72
-> $GCHDT,358.66,T*18
-> $GCROT,-61.71,A*0E
-> $GCHDT,358.61,T*1F
-> $GCROT,-62.65,A*08
-> $CCHPR,2.66,-0.00,-0.00*7A
-> $GPRMC,000002.68,A,5050.699933,N,00044.772996,W,0.1,1.9,230418,4.0,W,A,S*4C
-> $GCHDT,358.61,T*1F
-> $GCROT,-62.65,A*08
-> $GCHDT,358.56,T*1B
-> $GCROT,-63.59,A*06
-> $GCHDT,358.51,T*1C
-> $GCROT,-64.50,A*08
-> $CCHPR,2.66,0.00,-0.00*57
-> $GCHDT,358.46,T*1A
-> $GCROT,-65.42,A*0A
-> $GPRMC,000002.93,A,5050.699940,N,00044.772994,W,0.1,1.7,230418,4.0,W,A,S*40
-> $GCHDT,358.39,T*12
-> $GCROT,-66.63,A*0A
-> $CCHPR,2.46,-0.00,-0.00*78
-> $GCHDT,358.34,T*1F
-> $GCROT,-67.56,A*0D
-> $GCHDT,358.28,T*12
-> $GCROT,-68.49,A*0C
-> $PXTB,,,*32
-> $CCHPR,2.46,-0.00,-0.00*78
-> $GCHDT,358.21,T*1B
-> $GCROT,-69.72,A*05
-> $GPRMC,000003.15,A,5050.699950,N,00044.772994,W,0.2,1.4,230418,4.0,W,A,S*4E
-> $GCHDT,358.16,T*1F
-> $GCROT,-70.61,A*0F
-> $CCHPR,2.21,-0.00,-0.00*79
-> $GCHDT,358.10,T*19
-> $GCROT,-71.51,A*0D
-> $GCHDT,358.05,T*1D
-> $GCROT,-72.41,A*0F
-> $CCHPR,2.21,0.00,-0.00*54
-> $GCHDT,357.99,T*17
-> $GCROT,-73.29,A*00
-> $GCHDT,357.93,T*1D
-> $GCROT,-74.08,A*04
-> $CCHPR,1.99,-0.00,-0.00*79
-> $GPRMC,000003.39,A,5050.699959,N,00044.772994,W,0.2,1.1,230418,4.0,W,A,S*4C
-> $GCHDT,357.87,T*18
-> $GCROT,-74.83,A*07
-> $GCHDT,357.79,T*19
-> $GCROT,-75.79,A*03
-> $CCHPR,1.99,-0.00,-0.00*79
-> $GCHDT,357.73,T*13
-> $GCROT,-76.48,A*02
-> $GCHDT,357.67,T*16
-> $GCROT,-77.15,A*0B
-> $CCHPR,1.73,-0.00,-0.00*7D
-> $GPRMC,000003.59,A,5050.699967,N,00044.772993,W,0.2,0.9,230418,4.0,W,A,S*49
-> $GCHDT,357.61,T*10
-> $GCROT,-77.79,A*01
-> $GCHDT,357.55,T*17
-> $GCROT,-78.35,A*06
-> $CCHPR,1.73,-0.00,-0.00*7D
-> $DYSIG,0.94*7F
-> $GCHDT,357.47,T*14
-> $GCROT,-79.05,A*04
-> $GPRMC,000003.68,A,5050.699980,N,00044.772994,W,0.2,0.5,230418,4.0,W,A,S*49
-> $GCHDT,357.41,T*12
-> $GCROT,-79.56,A*02
-> $CCHPR,1.47,0.00,-0.00*57
-> $GCHDT,357.33,T*17
-> $GCROT,-80.20,A*05
-> $GCHDT,357.26,T*13
-> $GCROT,-80.61,A*00
-> $CCHPR,1.26,-0.00,-0.00*7D
-> $GCHDT,357.18,T*1E
-> $GCROT,-81.13,A*04
-> $GPRMC,000003.96,A,5050.699990,N,00044.772993,W,0.2,0.3,230418,4.0,W,A,S*48
-> $CCHPR,1.26,-0.00,-0.00*7D
-> $GCHDT,357.05,T*12
-> $GCROT,-81.74,A*05
-> $GCHDT,356.97,T*18
-> $GCROT,-82.11,A*05
-> $PXTB,,,*32
-> $CCHPR,0.97,0.00,-0.00*5B
-> $GCHDT,356.88,T*16
-> $GCROT,-82.47,A*06
-> $CCHPR,0.97,-0.00,-0.00*76
-> $GPRMC,000004.18,A,5050.700004,N,00044.772993,W,0.2,360.0,230418,4.0,W,A,S*4A
-> $GCHDT,356.79,T*18
-> $GCROT,-82.73,A*01
-> $GCHDT,356.73,T*12
-> $GCROT,-82.85,A*08
-> $CCHPR,0.97,-0.00,-0.00*76
-> $GCHDT,356.67,T*17
-> $GCROT,-82.97,A*0B
-> $GCHDT,356.60,T*10
-> $GCROT,-83.03,A*07
-> $CCHPR,0.67,-0.00,-0.00*79
-> $GPRMC,000004.39,A,5050.700019,N,00044.772993,W,0.3,359.6,230418,4.0,W,A,S*48
-> $GCHDT,356.53,T*10
-> $GCROT,-83.08,A*0C
-> $GCHDT,356.45,T*17
-> $GCROT,-83.14,A*01
-> $CCHPR,0.67,-0.00,-0.00*79
-> $GCHDT,356.38,T*1D
-> $GCROT,-83.18,A*0D
-> $GCHDT,356.32,T*17
-> $GCROT,-83.16,A*03
-> $CCHPR,0.38,-0.00,-0.01*72
-> $GPRMC,000004.59,A,5050.700030,N,00044.772993,W,0.3,359.4,230418,4.0,W,A,S*47
-> $GCHDT,356.25,T*11
-> $GCROT,-83.14,A*01
-> $GCHDT,356.19,T*1E
-> $GCROT,-83.06,A*02
-> $CCHPR,0.38,-0.00,-0.01*72
-> $DYSIG,0.00*72
-> $GCHDT,356.10,T*17
-> $GCROT,-82.95,A*09
-> $GCHDT,356.04,T*12
-> $GCROT,-82.82,A*0F
-> $CCHPR,0.10,-0.00,-0.01*78
-> $GPRMC,000004.68,A,5050.700049,N,00044.772995,W,0.3,359.0,230418,4.0,W,A,S*49
-> $GCHDT,355.97,T*1B
-> $GCROT,-82.68,A*0B
-> $GCHDT,355.91,T*1D
-> $GCROT,-82.49,A*08
-> $CCHPR,0.10,0.00,-0.01*55
-> $GCHDT,355.82,T*1F
-> $GCROT,-82.25,A*02
-> $GPRMC,000004.95,A,5050.700065,N,00044.772994,W,0.3,358.7,230418,4.0,W,A,S*42
-> $GCHDT,355.74,T*16
-> $GCROT,-81.94,A*0B
-> $CCHPR,359.82,-0.00,-0.01*7C
-> $GCHDT,355.67,T*14
-> $GCROT,-81.71,A*00
-> $GCHDT,355.59,T*19
-> $GCROT,-81.35,A*00
-> $PXTB,,,*32
-> $CCHPR,359.59,-0.00,-0.01*7A
-> $GCHDT,355.50,T*10
-> $GCROT,-80.99,A*07
-> $CCHPR,359.59,-0.00,-0.01*7A
-> $GPRMC,000005.18,A,5050.700079,N,00044.772995,W,0.3,358.4,230418,4.0,W,A,S*49
-> $GCHDT,355.42,T*13
-> $GCROT,-80.58,A*0A
-> $GCHDT,355.36,T*10
-> $GCROT,-80.22,A*07
-> $CCHPR,359.59,-0.00,-0.01*7A
-> $GCHDT,355.29,T*1E
-> $GCROT,-79.87,A*0E
-> $GPRMC,000005.34,A,5050.700098,N,00044.772996,W,0.3,358.1,230418,4.0,W,A,S*4E
-> $GCHDT,355.21,T*16
-> $GCROT,-79.35,A*07
-> $CCHPR,359.29,0.00,-0.01*50
-> $GCHDT,355.13,T*17
-> $GCROT,-78.85,A*0D
-> $GCHDT,355.07,T*12
-> $GCROT,-78.43,A*07
-> $CCHPR,359.07,-0.00,-0.01*71
-> $GCHDT,355.01,T*14
-> $GCROT,-78.02,A*02
-> $GPRMC,000005.56,A,5050.700114,N,00044.772996,W,0.3,357.8,230418,4.0,W,A,S*49
-> $GCHDT,354.93,T*1E
-> $GCROT,-77.43,A*08
-> $CCHPR,359.07,-0.00,-0.01*71
-> $GCHDT,354.87,T*1B
-> $GCROT,-76.94,A*03
-> $GCHDT,354.87,T*1B
-> $GCROT,-76.94,A*03
-> $CCHPR,359.07,-0.00,-0.01*71
-> $DYSIG,3.95*7D
-> $GCHDT,354.81,T*1D
-> $GCROT,-76.47,A*0D
-> $GCHDT,354.75,T*16
-> $GCROT,-76.00,A*0E
-> $GPRMC,000005.76,A,5050.700133,N,00044.772998,W,0.3,357.5,230418,4.0,W,A,S*4D
-> $GCHDT,354.69,T*1B
-> $GCROT,-75.50,A*08
-> $CCHPR,358.81,-0.00,-0.01*7E
-> $GCHDT,354.61,T*13
-> $GCROT,-74.86,A*02
-> $CCHPR,358.81,-0.00,-0.01*7E
-> $GCHDT,354.55,T*14
-> $GCROT,-74.34,A*0B
-> $GCHDT,354.49,T*19
-> $GCROT,-73.73,A*0F
-> $GPRMC,000005.96,A,5050.700152,N,00044.772999,W,0.4,357.2,230418,4.0,W,A,S*45
-> $GCHDT,354.42,T*12
-> $GCROT,-72.96,A*05
-> $CCHPR,358.55,-0.00,-0.01*77
-> $GCHDT,354.36,T*11
-> $GCROT,-72.33,A*0A
-> $PXTB,,,*32
-> $GCHDT,354.30,T*17
-> $GCROT,-71.73,A*0D
-> $CCHPR,358.30,0.00,-0.01*59
-> $GCHDT,354.25,T*13
-> $GCROT,-71.14,A*0C
-> $GPRMC,000006.17,A,5050.700173,N,00044.773001,W,0.4,356.9,230418,4.0,W,A,S*4F
-> $GCHDT,354.17,T*12
-> $GCROT,-70.32,A*09
-> $CCHPR,358.30,-0.00,-0.01*74
-> $GCHDT,354.12,T*17
-> $GCROT,-69.68,A*0E
-> $GCHDT,354.12,T*17
-> $GCROT,-69.68,A*0E
-> $CCHPR,358.30,-0.00,-0.01*74
-> $GCHDT,354.06,T*12
-> $GCROT,-69.05,A*05
-> $GCHDT,354.01,T*15
-> $GCROT,-68.39,A*0B
-> $GPRMC,000006.37,A,5050.700194,N,00044.773003,W,0.4,356.7,230418,4.0,W,A,S*48
-> $GCHDT,353.96,T*1C
-> $GCROT,-67.74,A*0D
-> $CCHPR,358.06,-0.00,-0.01*71
-> $GCHDT,353.90,T*1A
-> $GCROT,-67.07,A*09
-> $GCHDT,353.84,T*1F
-> $GCROT,-66.21,A*0C
-> $CCHPR,357.84,-0.00,-0.01*74
-> $GCHDT,353.78,T*1C
-> $GCROT,-65.47,A*0F
-> $GPRMC,000006.57,A,5050.700216,N,00044.773005,W,0.4,356.4,230418,4.0,W,A,S*42
-> $GCHDT,353.73,T*17
-> $GCROT,-64.77,A*0D
-> $CCHPR,357.84,-0.00,-0.01*74
-> $GCHDT,353.68,T*1D
-> $GCROT,-64.03,A*0E
-> $CCHPR,357.84,0.00,-0.01*59
-> $DYSIG,0.00*72
-> $GCHDT,353.63,T*16
-> $GCROT,-63.31,A*08
-> $GCHDT,353.58,T*1E
-> $GCROT,-62.57,A*09
-> $GPRMC,000006.76,A,5050.700237,N,00044.773007,W,0.4,356.1,230418,4.0,W,A,S*45
-> $GCHDT,353.53,T*15
-> $GCROT,-61.84,A*04
-> $CCHPR,357.63,-0.00,-0.01*7D
-> $GCHDT,353.47,T*10
-> $GCROT,-60.85,A*04
-> $GCHDT,353.42,T*15
-> $GCROT,-60.13,A*0B
-> $CCHPR,357.42,-0.00,-0.01*7E
-> $GCHDT,353.38,T*18
-> $GCROT,-59.43,A*04
-> $GPRMC,000006.96,A,5050.700260,N,00044.773010,W,0.4,355.9,230418,4.0,W,A,S*44
-> $GCHDT,353.33,T*13
-> $GCROT,-58.70,A*05
-> $CCHPR,357.42,-0.00,-0.01*7E
-> $GCHDT,353.29,T*18
-> $GCROT,-57.99,A*0D
-> $GCHDT,353.23,T*12
-> $GCROT,-57.02,A*0F
-> $PXTB,,,*32
-> $CCHPR,357.23,-0.00,-0.01*79
-> $GCHDT,353.18,T*1A
-> $GCROT,-56.27,A*09
-> $GPRMC,000007.17,A,5050.700284,N,00044.773012,W,0.4,355.7,230418,4.0,W,A,S*4A
-> $GCHDT,353.12,T*10
-> $GCROT,-55.30,A*0C
-> $CCHPR,357.23,0.00,-0.01*54
-> $GCHDT,353.12,T*10
-> $GCROT,-55.30,A*0C
-> $GCHDT,353.08,T*1B
-> $GCROT,-54.54,A*0F
-> $CCHPR,357.23,0.00,-0.01*54
-> $GCHDT,353.04,T*17
-> $GCROT,-53.81,A*00
-> $GCHDT,353.00,T*13
-> $GCROT,-53.10,A*08
-> $CCHPR,357.04,-0.00,-0.01*7C
-> $GPRMC,000007.37,A,5050.700309,N,00044.773015,W,0.4,355.4,230418,4.0,W,A,S*48
-> $GCHDT,352.96,T*1D
-> $GCROT,-52.37,A*0C
-> $GCHDT,352.96,T*1D
-> $GCROT,-52.37,A*0C
-> $GCHDT,352.91,T*1A
-> $GCROT,-51.65,A*08
-> $GCHDT,352.87,T*1D
-> $GCROT,-50.91,A*02
-> $CCHPR,356.87,-0.00,-0.01*76
-> $GCHDT,352.83,T*19
-> $GCROT,-50.19,A*02
-> $GPRMC,000007.56,A,5050.700332,N,00044.773018,W,0.5,355.2,230418,4.0,W,A,S*4D
-> $GCHDT,352.78,T*1D
-> $GCROT,-49.20,A*00
-> $CCHPR,356.87,-0.00,-0.01*76
-> $GCHDT,352.75,T*10
-> $GCROT,-48.49,A*0E
-> $GCHDT,352.71,T*14
-> $GCROT,-47.74,A*0F
-> $CCHPR,356.71,0.00,-0.01*52
-> $DYSIG,1.85*7E
-> $GCHDT,352.67,T*13
-> $GCROT,-47.02,A*0E
-> $GPRMC,000007.76,A,5050.700358,N,00044.773022,W,0.5,355.0,230418,4.0,W,A,S*48
-> $GCHDT,352.63,T*17
-> $GCROT,-46.27,A*08
-> $CCHPR,356.71,-0.00,-0.01*7F
-> $GCHDT,352.59,T*1E
-> $GCROT,-45.31,A*0C
-> $CCHPR,356.71,-0.00,-0.01*7F
-> $GCHDT,352.55,T*12
-> $GCROT,-44.56,A*0C
-> $GCHDT,352.52,T*15
-> $GCROT,-43.84,A*04
-> $GPRMC,000007.96,A,5050.700384,N,00044.773026,W,0.5,354.8,230418,4.0,W,A,S*4A
-> $GCHDT,352.48,T*1E
-> $GCROT,-43.09,A*01
-> $CCHPR,356.55,-0.00,-0.01*79
-> $GCHDT,352.45,T*13
-> $GCROT,-42.36,A*0C
-> $PXTB,,,*32
-> $GCHDT,352.41,T*17
-> $GCROT,-41.36,A*0F
-> $CCHPR,356.41,0.00,-0.01*51
-> $GCHDT,352.36,T*17
-> $GCROT,-40.40,A*0F
-> $CCHPR,356.41,-0.00,-0.01*7C
-> $GPRMC,000008.06,A,5050.700411,N,00044.773031,W,0.5,354.6,230418,4.0,W,A,S*4F
-> $GCHDT,352.32,T*13
-> $GCROT,-39.42,A*03
-> $CCHPR,356.41,-0.00,-0.01*7C
-> $GCHDT,352.26,T*16
-> $GCROT,-37.91,A*03
-> $GPRMC,000008.29,A,5050.700441,N,00044.773035,W,0.5,354.4,230418,4.0,W,A,S*41
-> $GCHDT,352.23,T*13
-> $GCROT,-37.15,A*0F
-> $CCHPR,356.26,-0.00,-0.01*7D
-> $GCHDT,352.19,T*1A
-> $GCROT,-36.17,A*0C
-> $CCHPR,356.26,-0.00,-0.01*7D
-> $GCHDT,352.14,T*17
-> $GCROT,-34.68,A*06
-> $GCHDT,352.11,T*12
-> $GCROT,-33.92,A*04
-> $CCHPR,356.14,-0.00,-0.01*7C
-> $GPRMC,000008.59,A,5050.700463,N,00044.773037,W,0.5,354.3,230418,4.0,W,A,S*43
-> $GCHDT,352.09,T*1B
-> $GCROT,-33.19,A*07
-> $GCHDT,352.06,T*14
-> $GCROT,-32.42,A*08
-> $CCHPR,356.14,-0.00,-0.01*7C
-> $DYSIG,0.53*74
-> $GCHDT,352.03,T*11
-> $GCROT,-31.44,A*0D
-> $GCHDT,352.00,T*12
-> $GCROT,-30.68,A*02
-> $CCHPR,356.03,0.00,-0.00*56
-> $GPRMC,000008.79,A,5050.700499,N,00044.773043,W,0.5,354.1,230418,4.0,W,A,S*45
-> $GCHDT,351.98,T*10
-> $GCROT,-29.94,A*09
-> $GCHDT,351.96,T*1E
-> $GCROT,-29.18,A*0D
-> $CCHPR,356.03,0.00,-0.00*56
-> $GCHDT,351.93,T*1B
-> $GCROT,-28.44,A*05
-> $GCHDT,351.93,T*1B
-> $GCROT,-28.44,A*05
-> $GPRMC,000008.93,A,5050.700526,N,00044.773048,W,0.5,353.9,230418,4.0,W,A,S*40
-> $GCHDT,351.90,T*18
-> $GCROT,-27.44,A*0A
-> $CCHPR,355.93,-0.00,-0.00*71
-> $GCHDT,351.88,T*11
-> $GCROT,-26.71,A*0D
-> $GCHDT,351.86,T*1F
-> $GCROT,-25.78,A*07
-> $PXTB,,,*32
-> $CCHPR,355.86,0.00,-0.00*58
-> $GPRMC,000009.15,A,5050.700552,N,00044.773052,W,0.5,353.8,230418,4.0,W,A,S*46
-> $GCHDT,351.82,T*1B
-> $GCROT,-24.41,A*0C
-> $CCHPR,355.86,-0.00,-0.00*75
-> $GCHDT,351.79,T*1F
-> $GCROT,-23.49,A*03
-> $CCHPR,355.77,-0.00,-0.00*7B
-> $GCHDT,351.75,T*13
-> $GCROT,-21.88,A*0C
-> $GPRMC,000009.37,A,5050.700582,N,00044.773057,W,0.6,353.7,230418,4.0,W,A,S*42
-> $CCHPR,355.77,-0.00,-0.00*7B
-> $GCHDT,351.72,T*14
-> $GCROT,-20.49,A*00
-> $GCHDT,351.70,T*16
-> $GCROT,-19.78,A*08
-> $CCHPR,355.70,-0.00,-0.00*7C
-> $GCHDT,351.69,T*1E
-> $GCROT,-19.10,A*06
-> $GPRMC,000009.56,A,5050.700614,N,00044.773063,W,0.6,353.5,230418,4.0,W,A,S*4C
-> $GCHDT,351.67,T*10
-> $GCROT,-18.23,A*07
-> $CCHPR,355.70,-0.00,-0.00*7C
-> $GCHDT,351.65,T*12
-> $GCROT,-17.55,A*09
-> $CCHPR,355.70,0.00,-0.00*51
-> $DYSIG,1.85*7E
-> $GCHDT,351.63,T*14
-> $GCROT,-16.68,A*06
-> $GCHDT,351.63,T*14
-> $GCROT,-16.68,A*06
-> $CCHPR,355.63,0.00,-0.00*53
-> $GPRMC,000009.78,A,5050.700648,N,00044.773069,W,0.6,353.4,230418,4.0,W,A,S*42
-> $GCHDT,351.61,T*16
-> $GCROT,-15.34,A*0C
-> $GCHDT,351.61,T*16
-> $GCROT,-15.34,A*0C
-> $GCHDT,351.60,T*17
-> $GCROT,-14.66,A*0A
-> $CCHPR,355.63,-0.00,-0.00*7E
-> $GCHDT,351.59,T*1D
-> $GCROT,-13.99,A*0D
-> $GCHDT,351.58,T*1C
-> $GCROT,-13.30,A*0E
-> $GPRMC,000009.96,A,5050.700678,N,00044.773075,W,0.6,353.3,230418,4.0,W,A,S*4B
-> $GCHDT,351.56,T*12
-> $GCROT,-12.41,A*09
-> $CCHPR,355.59,-0.00,-0.00*77
-> $GCHDT,351.55,T*11
-> $GCROT,-11.76,A*0E
-> $PXTB,,,*32
-> $GCHDT,351.54,T*10
-> $GCROT,-10.92,A*05
-> $CCHPR,355.54,-0.00,-0.00*7A
-> $GPRMC,000010.14,A,5050.700714,N,00044.773081,W,0.6,353.2,230418,4.0,W,A,S*48
-> $GCHDT,351.53,T*17
-> $GCROT,-10.06,A*08
-> $CCHPR,355.54,-0.00,-0.00*7A
-> $GCHDT,351.52,T*16
-> $GCROT,-9.23,A*37
-> $GCHDT,351.51,T*15
-> $GCROT,-8.39,A*3D
-> $CCHPR,355.51,-0.00,-0.00*7F
-> $GCHDT,351.50,T*14
-> $GCROT,-7.77,A*38
-> $GPRMC,000010.37,A,5050.700745,N,00044.773087,W,0.6,353.1,230418,4.0,W,A,S*48
-> $GCHDT,351.50,T*14
-> $GCROT,-7.13,A*3A
-> $CCHPR,355.51,-0.00,-0.00*7F
-> $GCHDT,351.49,T*1C
-> $GCROT,-6.51,A*3D
-> $GCHDT,351.49,T*1C
-> $GCROT,-5.86,A*34
-> $CCHPR,355.49,-0.00,-0.00*76
-> $GCHDT,351.48,T*1D
-> $GCROT,-5.23,A*3B
-> $GPRMC,000010.56,A,5050.700776,N,00044.773093,W,0.6,353.0,230418,4.0,W,A,S*4B
-> $GCHDT,351.48,T*1D
-> $GCROT,-4.43,A*3C
-> $CCHPR,355.49,-0.00,-0.00*76
-> $GCHDT,351.48,T*1D
-> $GCROT,-3.85,A*31
-> $CCHPR,355.49,-0.00,-0.00*76
-> $DYSIG,1.72*76
-> $GCHDT,351.47,T*12
-> $GCROT,-3.24,A*3A
-> $GCHDT,351.47,T*12
-> $GCROT,-2.64,A*3F
-> $GPRMC,000010.76,A,5050.700811,N,00044.773100,W,0.6,352.9,230418,4.0,W,A,S*44
-> $GCHDT,351.47,T*12
-> $GCROT,-2.02,A*3F
-> $CCHPR,355.47,-0.00,-0.00*78
-> $GCHDT,351.47,T*12
-> $GCROT,-1.22,A*3E
-> $CCHPR,355.47,0.00,-0.00*55
-> $GCHDT,351.47,T*12
-> $GCROT,-0.38,A*34
-> $GCHDT,351.47,T*12
-> $GCROT,-0.38,A*34
-> $GPRMC,000010.93,A,5050.700849,N,00044.773108,W,0.6,352.9,230418,4.0,W,A,S*4A
-> $GCHDT,351.47,T*12
-> $GCROT,0.47,A*11
-> $CCHPR,355.47,-0.00,-0.00*78
-> $GCHDT,351.47,T*12
-> $GCROT,1.89,A*12
-> $PXTB,,,*32
-> $CCHPR,355.47,-0.00,-0.00*78
-> $GPRMC,000011.15,A,5050.700879,N,00044.773114,W,0.7,352.8,230418,4.0,W,A,S*4B
-> $GCHDT,351.47,T*12
-> $GCROT,3.28,A*1B
-> $CCHPR,355.47,0.00,-0.00*55
-> $GCHDT,351.47,T*12
-> $GCROT,3.28,A*1B
-> $GCHDT,351.48,T*1D
-> $GCROT,4.63,A*13
-> $CCHPR,355.48,-0.00,-0.00*77
-> $CCHPR,355.48,0.00,-0.00*5A
-> $GPRMC,000011.37,A,5050.700919,N,00044.773122,W,0.7,352.8,230418,4.0,W,A,S*49
-> $GCHDT,351.49,T*1C
-> $GCROT,5.98,A*16
-> $GCHDT,351.50,T*14
-> $GCROT,6.75,A*16
-> $CCHPR,355.48,-0.00,0.00*5A
-> $GCHDT,351.50,T*14
-> $GCROT,7.32,A*14
-> $GCHDT,351.51,T*15
-> $GCROT,7.87,A*1A
-> $CCHPR,355.50,-0.00,0.00*53
-> $GPRMC,000011.59,A,5050.700950,N,00044.773128,W,0.7,352.7,230418,4.0,W,A,S*49
-> $GCHDT,351.52,T*16
-> $GCROT,8.40,A*1E
-> $GCHDT,351.52,T*16
-> $GCROT,8.96,A*15
-> $CCHPR,355.50,-0.00,0.00*53
-> $DYSIG,0.00*72
-> $GCHDT,351.53,T*17
-> $GCROT,9.68,A*15
-> $GCHDT,351.54,T*10
-> $GCROT,10.24,A*25
-> $CCHPR,355.53,0.00,0.00*7D
-> $GPRMC,000011.79,A,5050.700996,N,00044.773137,W,0.7,352.7,230418,4.0,W,A,S*4F
-> $GCHDT,351.55,T*11
-> $GCROT,10.79,A*2D
-> $GCHDT,351.56,T*12
-> $GCROT,11.33,A*22
-> $CCHPR,355.53,-0.00,0.00*50
-> $GCHDT,351.57,T*13
-> $GCROT,11.84,A*2E
-> $GPRMC,000011.93,A,5050.701031,N,00044.773144,W,0.7,352.6,230418,4.0,W,A,S*4B
-> $GCHDT,351.58,T*1C
-> $GCROT,12.56,A*22
-> $CCHPR,355.57,0.00,0.00*79
-> $GCHDT,351.59,T*1D
-> $GCROT,13.08,A*28
-> $GCHDT,351.60,T*17
-> $GCROT,13.82,A*2A
-> $PXTB,,,*32
-> $CCHPR,355.60,-0.00,0.00*50
-> $GCHDT,351.62,T*15
-> $GCROT,14.53,A*21
-> $GPRMC,000012.17,A,5050.701064,N,00044.773151,W,0.7,352.6,230418,4.0,W,A,S*40
-> $GCHDT,351.63,T*14
-> $GCROT,15.09,A*2F
-> $CCHPR,355.60,-0.00,0.00*50
-> $GCHDT,351.64,T*13
-> $GCROT,15.63,A*23
-> $GCHDT,351.65,T*12
-> $GCROT,16.15,A*21
-> $CCHPR,355.65,0.00,0.00*78
-> $GCHDT,351.67,T*10
-> $GCROT,16.82,A*2F
-> $GPRMC,000012.37,A,5050.701103,N,00044.773159,W,0.7,352.6,230418,4.0,W,A,S*4A
-> $GCHDT,351.68,T*1F
-> $GCROT,17.35,A*22
-> $CCHPR,355.65,0.00,0.00*78
-> $GCHDT,351.70,T*16
-> $GCROT,17.87,A*2B
-> $GCHDT,351.71,T*17
-> $GCROT,18.42,A*2D
-> $CCHPR,355.71,-0.00,0.00*50
-> $GCHDT,351.73,T*15
-> $GCROT,19.12,A*29
-> $GCHDT,351.73,T*15
-> $GCROT,19.12,A*29
-> $CCHPR,355.71,0.00,0.00*7D
-> $GPRMC,000012.57,A,5050.701143,N,00044.773167,W,0.7,352.6,230418,4.0,W,A,S*45
-> $GCHDT,351.75,T*13
-> $GCROT,19.68,A*24
-> $GCHDT,351.76,T*10
-> $GCROT,20.22,A*20
-> $GCHDT,351.78,T*1E
-> $GCROT,20.75,A*22
-> $CCHPR,355.78,-0.00,0.00*59
-> $DYSIG,0.87*7D
-> $GCHDT,351.79,T*1F
-> $GCROT,21.31,A*23
-> $GPRMC,000012.76,A,5050.701183,N,00044.773176,W,0.7,352.6,230418,4.0,W,A,S*4A
-> $GCHDT,351.81,T*18
-> $GCROT,21.84,A*2D
-> $CCHPR,355.78,-0.00,0.00*59
-> $GCHDT,351.83,T*1A
-> $GCROT,22.59,A*2E
-> $CCHPR,355.78,-0.00,0.00*59
-> $GCHDT,351.86,T*1F
-> $GCROT,23.32,A*22
-> $GPRMC,000012.93,A,5050.701227,N,00044.773185,W,0.7,352.5,230418,4.0,W,A,S*43
-> $GCHDT,351.88,T*11
-> $GCROT,24.01,A*25
-> $CCHPR,355.86,-0.00,0.00*58
-> $GCHDT,351.92,T*1A
-> $GCROT,25.04,A*21
-> $PXTB,,,*32
-> $CCHPR,355.86,-0.00,0.00*58
-> $GCHDT,351.94,T*1C
-> $GCROT,25.55,A*25
-> $GPRMC,000013.14,A,5050.701268,N,00044.773193,W,0.7,352.5,230418,4.0,W,A,S*41
-> $GCHDT,351.97,T*1F
-> $GCROT,26.27,A*23
-> $CCHPR,355.94,-0.00,0.00*5B
-> $GCHDT,352.00,T*12
-> $GCROT,26.97,A*28
-> $GCHDT,352.02,T*10
-> $GCROT,27.48,A*2B
-> $CCHPR,356.02,-0.00,0.00*57
-> $GCHDT,352.05,T*17
-> $GCROT,28.12,A*2B
-> $GPRMC,000013.37,A,5050.701303,N,00044.773201,W,0.8,352.6,230418,4.0,W,A,S*48
-> $GCHDT,352.07,T*15
-> $GCROT,28.63,A*2D
-> $CCHPR,356.02,0.00,0.00*7A
-> $GCHDT,352.09,T*1B
-> $GCROT,29.13,A*2B
-> $GCHDT,352.11,T*12
-> $GCROT,29.66,A*29
-> $CCHPR,356.11,0.00,0.00*78
-> $GCHDT,352.14,T*17
-> $GCROT,30.17,A*27
-> $GPRMC,000013.56,A,5050.701346,N,00044.773209,W,0.8,352.6,230418,4.0,W,A,S*46
-> $GCHDT,352.17,T*14
-> $GCROT,30.83,A*2A
-> $CCHPR,356.11,-0.00,0.01*54
-> $GCHDT,352.20,T*10
-> $GCROT,31.47,A*23
-> $CCHPR,356.11,-0.00,0.01*54
-> $DYSIG,1.64*71
-> $GCHDT,352.23,T*13
-> $GCROT,32.14,A*26
-> $GCHDT,352.23,T*13
-> $GCROT,32.14,A*26
-> $GPRMC,000013.75,A,5050.701395,N,00044.773220,W,0.8,352.6,230418,4.0,W,A,S*42
-> $GCHDT,352.27,T*17
-> $GCROT,32.85,A*2E
-> $CCHPR,356.23,0.00,0.01*78
-> $GCHDT,352.30,T*11
-> $GCROT,33.52,A*25
-> $CCHPR,356.23,0.00,0.01*78
-> $GCHDT,352.33,T*12
-> $GCROT,34.01,A*24
-> $GCHDT,352.36,T*17
-> $GCROT,34.53,A*23
-> $GPRMC,000013.96,A,5050.701432,N,00044.773227,W,0.8,352.6,230418,4.0,W,A,S*42
-> $GCHDT,352.38,T*19
-> $GCROT,35.04,A*20
-> $CCHPR,356.33,0.00,0.01*79
-> $GCHDT,352.42,T*14
-> $GCROT,35.69,A*2B
-> $PXTB,,,*32
-> $GCHDT,352.45,T*13
-> $GCROT,36.16,A*20
-> $CCHPR,356.45,-0.00,0.01*55
-> $GCHDT,352.48,T*1E
-> $GCROT,36.61,A*20
-> $GPRMC,000014.17,A,5050.701475,N,00044.773236,W,0.8,352.6,230418,4.0,W,A,S*4F
-> $GCHDT,352.50,T*17
-> $GCROT,37.09,A*2F
-> $CCHPR,356.45,-0.00,0.01*55
-> $GCHDT,352.54,T*13
-> $GCROT,37.70,A*21
-> $CCHPR,356.45,-0.00,0.01*55
-> $GCHDT,352.57,T*10
-> $GCROT,38.19,A*21
-> $GCHDT,352.60,T*14
-> $GCROT,38.66,A*29
-> $GPRMC,000014.37,A,5050.701520,N,00044.773245,W,0.8,352.7,230418,4.0,W,A,S*49
-> $GCHDT,352.63,T*17
-> $GCROT,39.12,A*2B
-> $CCHPR,356.57,0.00,0.01*7B
-> $GCHDT,352.66,T*12
-> $GCROT,39.55,A*28
-> $GCHDT,352.70,T*15
-> $GCROT,40.02,A*24
-> $CCHPR,356.70,-0.00,0.01*53
-> $GCHDT,352.74,T*11
-> $GCROT,40.62,A*22
-> $CCHPR,356.70,-0.00,0.01*53
-> $GPRMC,000014.57,A,5050.701561,N,00044.773254,W,0.8,352.7,230418,4.0,W,A,S*4A
-> $GCHDT,352.78,T*1D
-> $GCROT,41.21,A*24
-> $GCHDT,352.81,T*1B
-> $GCROT,41.70,A*20
-> $CCHPR,356.70,-0.00,0.01*53
-> $DYSIG,0.00*72
-> $GCHDT,352.86,T*1C
-> $GCROT,42.34,A*23
-> $GCHDT,352.89,T*13
-> $GCROT,42.87,A*2B
-> $CCHPR,356.86,-0.00,0.01*5A
-> $GPRMC,000014.68,A,5050.701613,N,00044.773265,W,0.8,352.8,230418,4.0,W,A,S*4D
-> $GCHDT,352.89,T*13
-> $GCROT,42.87,A*2B
-> $GCHDT,352.92,T*19
-> $GCROT,43.39,A*2F
-> $GCHDT,352.97,T*1C
-> $GCROT,44.06,A*24
-> $CCHPR,356.97,-0.00,0.01*5A
-> $GCHDT,352.97,T*1C
-> $GCROT,44.06,A*24
-> $GCHDT,353.00,T*13
-> $GCROT,44.55,A*22
-> $GCHDT,353.00,T*13
-> $GCROT,44.55,A*22
-> $GPRMC,000014.95,A,5050.701649,N,00044.773271,W,0.8,352.8,230418,4.0,W,A,S*45
-> $GCHDT,353.04,T*17
-> $GCROT,45.09,A*2A
-> $CCHPR,356.97,0.00,0.01*77
-> $GCHDT,353.09,T*1A
-> $GCROT,45.80,A*2B
-> $PXTB,,,*32
-> $GCHDT,353.13,T*11
-> $GCROT,46.56,A*23
-> $CCHPR,357.13,-0.00,0.01*57
-> $GCHDT,353.18,T*1A
-> $GCROT,47.31,A*23
-> $CCHPR,357.13,-0.00,0.01*57
-> $GPRMC,000015.18,A,5050.701698,N,00044.773281,W,0.8,352.9,230418,4.0,W,A,S*43
-> $GCHDT,353.23,T*12
-> $GCROT,48.03,A*2D
-> $GCHDT,353.27,T*16
-> $GCROT,48.61,A*29
-> $CCHPR,357.13,-0.00,0.01*57
-> $GCHDT,353.31,T*11
-> $GCROT,49.19,A*27
-> $GCHDT,353.35,T*15
-> $GCROT,49.74,A*2C
-> $CCHPR,357.31,-0.00,0.01*57
-> $GPRMC,000015.39,A,5050.701749,N,00044.773291,W,0.8,352.9,230418,4.0,W,A,S*4C
-> $GCHDT,353.39,T*19
-> $GCROT,50.29,A*2C
-> $GCHDT,353.44,T*13
-> $GCROT,51.07,A*21
-> $CCHPR,357.31,-0.00,0.01*57
-> $GCHDT,353.49,T*1E
-> $GCROT,51.84,A*2A
-> $GPRMC,000015.56,A,5050.701785,N,00044.773298,W,0.8,353.0,230418,4.0,W,A,S*44
-> $GCHDT,353.55,T*13
-> $GCROT,52.58,A*28
-> $CCHPR,357.49,0.00,0.01*75
-> $GCHDT,353.59,T*1F
-> $GCROT,53.12,A*27
-> $CCHPR,357.49,-0.00,0.01*58
-> $DYSIG,0.00*72
-> $GCHDT,353.63,T*16
-> $GCROT,53.71,A*22
-> $GCHDT,353.67,T*12
-> $GCROT,54.27,A*26
-> $GPRMC,000015.76,A,5050.701836,N,00044.773308,W,0.9,353.0,230418,4.0,W,A,S*48
-> $GCHDT,353.72,T*16
-> $GCROT,54.82,A*29
-> $CCHPR,357.63,0.00,0.01*7D
-> $GCHDT,353.72,T*16
-> $GCROT,54.82,A*29
-> $GCHDT,353.77,T*13
-> $GCROT,55.52,A*25
-> $CCHPR,357.63,-0.00,0.01*50
-> $GCHDT,353.82,T*19
-> $GCROT,56.08,A*29
-> $GCHDT,353.86,T*1D
-> $GCROT,56.62,A*25
-> $GPRMC,000015.96,A,5050.701885,N,00044.773317,W,0.9,353.1,230418,4.0,W,A,S*41
-> $GCHDT,353.92,T*18
-> $GCROT,57.31,A*22
-> $CCHPR,357.82,-0.00,0.01*5F
-> $PXTB,,,*32
-> $GCHDT,354.02,T*16
-> $GCROT,58.51,A*2B
-> $CCHPR,358.02,0.00,0.01*75
-> $GPRMC,000016.14,A,5050.701937,N,00044.773327,W,0.9,353.2,230418,4.0,W,A,S*40
-> $GCHDT,354.09,T*1D
-> $GCROT,59.21,A*2D
-> $CCHPR,358.02,-0.00,0.01*58
-> $GCHDT,354.15,T*10
-> $GCROT,59.89,A*2F
-> $GCHDT,354.20,T*16
-> $GCROT,60.41,A*21
-> $CCHPR,358.20,-0.00,0.01*58
-> $GCHDT,354.26,T*10
-> $GCROT,61.08,A*2D
-> $GPRMC,000016.37,A,5050.701978,N,00044.773335,W,0.9,353.3,230418,4.0,W,A,S*48
-> $GCHDT,354.31,T*16
-> $GCROT,61.57,A*27
-> $CCHPR,358.20,-0.00,0.01*58
-> $GCHDT,354.35,T*12
-> $GCROT,62.05,A*23
-> $GCHDT,354.42,T*12
-> $GCROT,62.75,A*24
-> $CCHPR,358.42,-0.00,0.01*5C
-> $GCHDT,354.49,T*19
-> $GCROT,63.43,A*20
-> $CCHPR,358.42,-0.00,0.01*5C
-> $GPRMC,000016.59,A,5050.702032,N,00044.773345,W,0.9,353.4,230418,4.0,W,A,S*44
-> $GCHDT,354.55,T*14
-> $GCROT,64.08,A*28
-> $GCHDT,354.60,T*12
-> $GCROT,64.61,A*27
-> $CCHPR,358.60,-0.00,0.01*5C
-> $DYSIG,0.00*72
-> $GCHDT,354.67,T*15
-> $GCROT,65.31,A*23
-> $GPRMC,000016.76,A,5050.702074,N,00044.773353,W,0.9,353.5,230418,4.0,W,A,S*4D
-> $GCHDT,354.72,T*11
-> $GCROT,65.82,A*2B
-> $CCHPR,358.60,-0.00,0.01*5C
-> $GCHDT,354.79,T*1A
-> $GCROT,66.46,A*20
-> $CCHPR,358.60,-0.00,0.01*5C
-> $GCHDT,354.84,T*18
-> $GCROT,66.94,A*2F
-> $GCHDT,354.91,T*1C
-> $GCROT,67.55,A*23
-> $GPRMC,000016.98,A,5050.702128,N,00044.773362,W,0.9,353.6,230418,4.0,W,A,S*44
-> $GCHDT,354.96,T*1B
-> $GCROT,68.06,A*2A
-> $CCHPR,358.84,-0.00,0.01*56
-> $GCHDT,355.04,T*11
-> $GCROT,68.73,A*28
-> $PXTB,,,*32
-> $CCHPR,358.84,0.00,0.01*7B
-> $GCHDT,355.11,T*15
-> $GCROT,69.36,A*28
-> $GPRMC,000017.15,A,5050.702186,N,00044.773372,W,0.9,353.8,230418,4.0,W,A,S*4B
-> $CCHPR,359.11,-0.00,0.02*58
-> $GCHDT,355.22,T*15
-> $GCROT,70.39,A*2F
-> $GCHDT,355.22,T*15
-> $GCROT,70.39,A*2F
-> $GCHDT,355.27,T*10
-> $GCROT,70.88,A*25
-> $CCHPR,359.11,0.00,0.02*75
-> $GCHDT,355.33,T*15
-> $GCROT,71.37,A*20
-> $GCHDT,355.33,T*15
-> $GCROT,71.37,A*20
-> $GPRMC,000017.29,A,5050.702234,N,00044.773381,W,0.9,353.9,230418,4.0,W,A,S*43
-> $GCHDT,355.38,T*1E
-> $GCROT,71.90,A*2D
-> $CCHPR,359.33,-0.00,0.02*58
-> $GCHDT,355.44,T*15
-> $GCROT,72.41,A*22
-> $GCHDT,355.52,T*12
-> $GCROT,73.08,A*2E
-> $CCHPR,359.33,-0.00,0.02*58
-> $GCHDT,355.57,T*17
-> $GCROT,73.54,A*27
-> $GCHDT,355.63,T*10
-> $GCROT,74.04,A*25
-> $CCHPR,359.57,-0.00,0.02*5A
-> $GPRMC,000017.59,A,5050.702273,N,00044.773387,W,0.9,354.0,230418,4.0,W,A,S*4F
-> $GCHDT,355.69,T*1A
-> $GCROT,74.50,A*24
-> $GCHDT,355.75,T*17
-> $GCROT,74.93,A*2B
-> $CCHPR,359.57,0.00,0.02*77
-> $DYSIG,0.06*74
-> $GCHDT,355.83,T*1E
-> $GCROT,75.46,A*22
-> $GCHDT,355.88,T*15
-> $GCROT,75.82,A*2A
-> $CCHPR,359.83,-0.00,0.02*53
-> $GPRMC,000017.79,A,5050.702337,N,00044.773398,W,0.9,354.2,230418,4.0,W,A,S*40
-> $GCHDT,355.94,T*18
-> $GCROT,76.15,A*27
-> $GCHDT,356.02,T*14
-> $GCROT,76.58,A*2E
-> $CCHPR,0.02,-0.00,0.02*55
-> $GCHDT,356.08,T*1E
-> $GCROT,76.86,A*2D
-> $GPRMC,000017.95,A,5050.702377,N,00044.773404,W,0.9,354.3,230418,4.0,W,A,S*45
-> $GCHDT,356.14,T*13
-> $GCROT,77.14,A*27
-> $CCHPR,0.02,-0.00,0.02*55
-> $GCHDT,356.14,T*13
-> $GCROT,77.14,A*27
-> $GCHDT,356.20,T*14
-> $GCROT,77.40,A*26
-> $GCHDT,356.28,T*1C
-> $GCROT,77.73,A*26
-> $PXTB,,,*32
-> $CCHPR,0.28,-0.00,0.02*5D
-> $GCHDT,356.28,T*1C
-> $GCROT,77.73,A*26
-> $GPRMC,000018.15,A,5050.702430,N,00044.773412,W,0.9,354.5,230418,4.0,W,A,S*47
-> $GCHDT,356.41,T*13
-> $GCROT,78.23,A*2C
-> $CCHPR,0.28,-0.00,0.02*5D
-> $GCHDT,356.47,T*15
-> $GCROT,78.48,A*21
-> $GCHDT,356.53,T*10
-> $GCROT,78.72,A*28
-> $CCHPR,0.28,-0.00,0.02*5D
-> $GCHDT,356.61,T*11
-> $GCROT,79.04,A*28
-> $GPRMC,000018.35,A,5050.702495,N,00044.773422,W,0.9,354.7,230418,4.0,W,A,S*4B
-> $GCHDT,356.69,T*19
-> $GCROT,79.43,A*2B
-> $CCHPR,0.61,-0.00,0.02*50
-> $GCHDT,356.84,T*1A
-> $GCROT,80.10,A*2B
-> $CCHPR,0.84,-0.00,0.02*5B
-> $GPRMC,000018.57,A,5050.702540,N,00044.773429,W,0.9,354.8,230418,4.0,W,A,S*42
-> $GCHDT,356.97,T*18
-> $GCROT,80.66,A*2A
-> $CCHPR,0.84,-0.00,0.02*5B
-> $GCHDT,357.03,T*14
-> $GCROT,80.93,A*20
-> $GCHDT,357.03,T*14
-> $GCROT,80.93,A*20
-> $CCHPR,0.84,-0.00,0.02*5B
-> $DYSIG,1.25*74
-> $GCHDT,357.09,T*1E
-> $GCROT,81.20,A*29
-> $GCHDT,357.16,T*10
-> $GCROT,81.47,A*28
-> $GPRMC,000018.76,A,5050.702590,N,00044.773436,W,1.0,355.0,230418,4.0,W,A,S*43
-> $GCHDT,357.24,T*11
-> $GCROT,81.75,A*29
-> $CCHPR,1.09,-0.00,0.02*5F
-> $GCHDT,357.30,T*14
-> $GCROT,81.96,A*24
-> $GCHDT,357.30,T*14
-> $GCROT,81.96,A*24
-> $CCHPR,1.09,-0.00,0.02*5F
-> $GCHDT,357.37,T*13
-> $GCROT,82.17,A*2E
-> $GCHDT,357.43,T*10
-> $GCROT,82.37,A*2C
-> $GPRMC,000018.96,A,5050.702644,N,00044.773443,W,1.0,355.2,230418,4.0,W,A,S*47
-> $GCHDT,357.50,T*12
-> $GCROT,82.58,A*25
-> $CCHPR,1.37,-0.00,0.02*52
-> $GCHDT,357.50,T*12
-> $GCROT,82.58,A*25
-> $GCHDT,357.56,T*14
-> $GCROT,82.79,A*26
-> $PXTB,,,*32
-> $GCHDT,357.65,T*14
-> $GCROT,83.06,A*2F
-> $CCHPR,1.65,0.00,0.02*78
-> $GCHDT,357.65,T*14
-> $GCROT,83.06,A*2F
-> $GCHDT,357.71,T*11
-> $GCROT,83.26,A*2D
-> $GCHDT,357.71,T*11
-> $GCROT,83.26,A*2D
-> $CCHPR,1.65,-0.00,0.02*55
-> $GPRMC,000019.17,A,5050.702698,N,00044.773450,W,1.0,355.4,230418,4.0,W,A,S*4A
-> $GCHDT,357.78,T*18
-> $GCROT,83.47,A*2A
-> $GCHDT,357.78,T*18
-> $GCROT,83.47,A*2A
-> $GCHDT,357.86,T*19
-> $GCROT,83.73,A*2D
-> $CCHPR,1.65,0.00,0.02*78
-> $GCHDT,357.93,T*1D
-> $GCROT,83.93,A*23
-> $GCHDT,357.93,T*1D
-> $GCROT,83.93,A*23
-> $GCHDT,358.00,T*18
-> $GCROT,84.14,A*2B
-> $CCHPR,1.93,-0.00,0.02*5C
-> $GPRMC,000019.37,A,5050.702753,N,00044.773457,W,1.0,355.6,230418,4.0,W,A,S*4B
-> $GCHDT,358.06,T*1E
-> $GCROT,84.33,A*2E
-> $GCHDT,358.15,T*1C
-> $GCROT,84.47,A*2D
-> $CCHPR,1.93,0.00,0.02*71
-> $GCHDT,358.24,T*1E
-> $GCROT,84.56,A*2D
-> $GCHDT,358.30,T*1B
-> $GCROT,84.58,A*23
-> $CCHPR,2.24,0.00,0.02*7E
-> $GPRMC,000019.48,A,5050.702812,N,00044.773465,W,1.0,355.8,230418,4.0,W,A,S*46
-> $GCHDT,358.37,T*1C
-> $GCROT,84.57,A*2C
-> $GCHDT,358.44,T*18
-> $GCROT,84.50,A*2B
-> $CCHPR,2.24,-0.00,0.02*53
-> $DYSIG,0.00*72
-> $GCHDT,358.52,T*1F
-> $GCROT,84.37,A*2A
-> $GCHDT,358.59,T*14
-> $GCROT,84.21,A*2D
-> $CCHPR,2.52,0.00,0.02*7F
-> $GPRMC,000019.79,A,5050.702868,N,00044.773470,W,1.0,356.0,230418,4.0,W,A,S*46
-> $GCHDT,358.66,T*18
-> $GCROT,84.01,A*2F
-> $GCHDT,358.74,T*1B
-> $GCROT,83.71,A*2F
-> $CCHPR,2.74,-0.00,0.02*56
-> $GCHDT,358.81,T*11
-> $GCROT,83.45,A*28
-> $GPRMC,000019.95,A,5050.702910,N,00044.773475,W,1.0,356.2,230418,4.0,W,A,S*4D
-> $GCHDT,358.87,T*17
-> $GCROT,83.10,A*28
-> $CCHPR,2.74,-0.00,0.02*56
-> $GCHDT,358.94,T*15
-> $GCROT,82.79,A*26
-> $GCHDT,359.00,T*19
-> $GCROT,82.50,A*2D
-> $PXTB,,,*32
-> $CCHPR,2.74,-0.00,0.02*56
-> $GCHDT,359.07,T*1E
-> $GCROT,82.23,A*29
-> $GCHDT,359.13,T*1B
-> $GCROT,81.93,A*21
-> $CCHPR,3.07,-0.00,0.02*53
-> $GPRMC,000020.18,A,5050.702975,N,00044.773482,W,1.0,356.5,230418,4.0,W,A,S*4E
-> $GCHDT,359.22,T*19
-> $GCROT,81.57,A*29
-> $GCHDT,359.28,T*13
-> $GCROT,81.28,A*21
-> $CCHPR,3.07,-0.00,0.02*53
-> $GCHDT,359.34,T*1E
-> $GCROT,81.00,A*2B
-> $GPRMC,000020.34,A,5050.703032,N,00044.773487,W,1.0,356.7,230418,4.0,W,A,S*4C
-> $GCHDT,359.43,T*1E
-> $GCROT,80.67,A*2B
-> $CCHPR,3.34,-0.00,0.02*53
-> $GCHDT,359.49,T*14
-> $GCROT,80.45,A*2B
-> $GCHDT,359.55,T*19
-> $GCROT,80.19,A*22
-> $CCHPR,3.34,-0.00,0.02*53
-> $GCHDT,359.62,T*1D
-> $GCROT,79.96,A*23
-> $GPRMC,000020.54,A,5050.703075,N,00044.773491,W,1.0,356.9,230418,4.0,W,A,S*40
-> $GCHDT,359.70,T*1E
-> $GCROT,79.60,A*2A
-> $CCHPR,3.62,-0.00,0.02*50
-> $GCHDT,359.76,T*18
-> $GCROT,79.36,A*29
-> $GCHDT,359.82,T*13
-> $GCROT,79.14,A*29
-> $CCHPR,3.82,-0.00,0.02*5E
-> $DYSIG,0.00*72
-> $GCHDT,359.88,T*19
-> $GCROT,78.93,A*27
-> $GCHDT,359.95,T*15
-> $GCROT,78.69,A*22
-> $CCHPR,3.82,0.00,0.02*73
-> $GPRMC,000020.79,A,5050.703132,N,00044.773495,W,1.0,357.2,230418,4.0,W,A,S*43
-> $GCHDT,0.01,T*17
-> $GCROT,78.47,A*2E
-> $GCHDT,0.07,T*11
-> $GCROT,78.21,A*2E
-> $CCHPR,3.82,-0.00,0.02*5E
-> $GCHDT,0.13,T*14
-> $GCROT,77.98,A*23
-> $GPRMC,000020.93,A,5050.703198,N,00044.773500,W,1.0,357.4,230418,4.0,W,A,S*4C
-> $GCHDT,0.21,T*15
-> $GCROT,77.61,A*25
-> $CCHPR,4.13,-0.00,0.02*51
-> $GCHDT,0.27,T*13
-> $GCROT,77.36,A*27
-> $GCHDT,0.35,T*10
-> $GCROT,77.06,A*24
-> $PXTB,,,*32
-> $CCHPR,4.35,0.00,0.02*78
-> $GCHDT,0.41,T*13
-> $GCROT,76.85,A*2E
-> $GPRMC,000021.15,A,5050.703246,N,00044.773504,W,1.0,357.6,230418,4.0,W,A,S*45
-> $GCHDT,0.47,T*15
-> $GCROT,76.60,A*25
-> $CCHPR,4.35,-0.00,0.02*55
-> $GCHDT,0.53,T*10
-> $GCROT,76.37,A*27
-> $GCHDT,0.59,T*1A
-> $GCROT,76.11,A*23
-> $CCHPR,4.35,-0.00,0.02*55
-> $GCHDT,0.67,T*17
-> $GCROT,75.78,A*2F
-> $GPRMC,000021.35,A,5050.703317,N,00044.773508,W,1.0,357.9,230418,4.0,W,A,S*41
-> $GCHDT,0.75,T*14
-> $GCROT,75.40,A*24
-> $CCHPR,4.67,-0.00,0.02*52
-> $GCHDT,0.81,T*1F
-> $GCROT,75.14,A*25
-> $GCHDT,0.87,T*19
-> $GCROT,74.84,A*2D
-> $CCHPR,4.87,-0.00,0.02*5C
-> $GCHDT,0.93,T*1C
-> $GCROT,74.53,A*27
-> $GPRMC,000021.56,A,5050.703362,N,00044.773510,W,1.0,358.0,230418,4.0,W,A,S*49
-> $GCHDT,1.00,T*17
-> $GCROT,74.01,A*20
-> $CCHPR,4.87,0.00,0.02*71
-> $GCHDT,1.06,T*11
-> $GCROT,73.59,A*2A
-> $GCHDT,1.06,T*11
-> $GCROT,73.59,A*2A
-> $CCHPR,4.87,-0.00,0.02*5C
-> $DYSIG,2.43*77
-> $GCHDT,1.12,T*14
-> $GCROT,73.10,A*27
-> $GCHDT,1.17,T*11
-> $GCROT,72.60,A*21
-> $GPRMC,000021.76,A,5050.703420,N,00044.773513,W,1.0,358.3,230418,4.0,W,A,S*4A
-> $GCHDT,1.23,T*16
-> $GCROT,72.02,A*25
-> $CCHPR,5.12,-0.00,0.02*51
-> $GCHDT,1.31,T*15
-> $GCROT,71.25,A*23
-> $CCHPR,5.12,0.00,0.02*7C
-> $GCHDT,1.36,T*12
-> $GCROT,70.59,A*29
-> $GCHDT,1.36,T*12
-> $GCROT,70.59,A*29
-> $GCHDT,1.42,T*11
-> $GCROT,69.87,A*22
-> $GCHDT,1.42,T*11
-> $GCROT,69.87,A*22
-> $GPRMC,000021.96,A,5050.703478,N,00044.773516,W,1.0,358.5,230418,4.0,W,A,S*4A
-> $GCHDT,1.47,T*14
-> $GCROT,69.14,A*28
-> $CCHPR,5.36,0.00,0.02*7A
-> $GCHDT,1.52,T*10
-> $GCROT,68.40,A*28
-> $PXTB,,,*32
-> $GCHDT,1.59,T*1B
-> $GCROT,67.36,A*26
-> $CCHPR,5.59,-0.00,0.02*5E
-> $GCHDT,1.66,T*17
-> $GCROT,66.27,A*27
-> $CCHPR,5.59,-0.00,0.02*5E
-> $GPRMC,000022.18,A,5050.703537,N,00044.773518,W,1.0,358.8,230418,4.0,W,A,S*46
-> $GCHDT,1.73,T*13
-> $GCROT,65.29,A*2A
-> $GCHDT,1.78,T*18
-> $GCROT,64.52,A*27
-> $CCHPR,5.59,-0.00,0.02*5E
-> $GCHDT,1.83,T*1C
-> $GCROT,63.80,A*2F
-> $GCHDT,1.88,T*17
-> $GCROT,63.02,A*25
-> $CCHPR,5.83,-0.00,0.02*59
-> $GPRMC,000022.39,A,5050.703601,N,00044.773520,W,1.0,359.1,230418,4.0,W,A,S*40
-> $GCHDT,1.93,T*1D
-> $GCROT,62.28,A*2C
-> $GCHDT,2.00,T*14
-> $GCROT,61.27,A*20
-> $CCHPR,5.83,-0.00,0.02*59
-> $GCHDT,2.06,T*12
-> $GCROT,60.31,A*26
-> $GPRMC,000022.56,A,5050.703646,N,00044.773521,W,1.0,359.3,230418,4.0,W,A,S*49
-> $GCHDT,2.12,T*17
-> $GCROT,59.35,A*28
-> $CCHPR,6.06,0.00,0.02*7A
-> $GCHDT,2.12,T*17
-> $GCROT,59.35,A*28
-> $GCHDT,2.17,T*12
-> $GCROT,58.60,A*29
-> $CCHPR,6.06,-0.00,0.02*57
-> $DYSIG,0.00*72
-> $GCHDT,2.21,T*17
-> $GCROT,57.89,A*21
-> $GCHDT,2.26,T*10
-> $GCROT,57.15,A*24
-> $GPRMC,000022.76,A,5050.703710,N,00044.773522,W,1.0,359.5,230418,4.0,W,A,S*4C
-> $GCHDT,2.30,T*17
-> $GCROT,56.45,A*20
-> $CCHPR,6.21,0.00,0.02*7F
-> $GCHDT,2.36,T*11
-> $GCROT,55.58,A*2F
-> $CCHPR,6.21,-0.00,0.02*52
-> $GCHDT,2.42,T*12
-> $GCROT,54.65,A*20
-> $GPRMC,000022.93,A,5050.703774,N,00044.773523,W,1.1,359.7,230418,4.0,W,A,S*47
-> $GCHDT,2.47,T*17
-> $GCROT,53.70,A*23
-> $CCHPR,6.42,-0.00,0.02*57
-> $GCHDT,2.56,T*17
-> $GCROT,52.33,A*25
-> $PXTB,,,*32
-> $CCHPR,6.42,-0.00,0.02*57
-> $GCHDT,2.61,T*13
-> $GCROT,51.44,A*26
-> $GPRMC,000023.15,A,5050.703838,N,00044.773523,W,1.1,360.0,230418,4.0,W,A,S*42
-> $CCHPR,6.61,-0.00,0.02*56
-> $GCHDT,2.69,T*1B
-> $GCROT,50.07,A*20
-> $GCHDT,2.73,T*10
-> $GCROT,49.36,A*2A
-> $CCHPR,6.61,-0.00,0.02*56
-> $GCHDT,2.77,T*14
-> $GCROT,48.69,A*21
-> $GCHDT,2.81,T*1D
-> $GCROT,47.97,A*2F
-> $CCHPR,6.77,-0.00,0.02*51
-> $GPRMC,000023.39,A,5050.703894,N,00044.773523,W,1.1,0.1,230418,4.0,W,A,S*4E
-> $GCHDT,2.84,T*18
-> $GCROT,47.28,A*2B
-> $GCHDT,2.89,T*15
-> $GCROT,46.32,A*21
-> $CCHPR,6.77,-0.00,0.01*52
-> $GCHDT,2.94,T*19
-> $GCROT,45.41,A*26
-> $GPRMC,000023.56,A,5050.703940,N,00044.773523,W,1.1,0.3,230418,4.0,W,A,S*4D
-> $GCHDT,2.99,T*14
-> $GCROT,44.46,A*20
-> $CCHPR,6.94,0.00,0.01*72
-> $GCHDT,3.02,T*17
-> $GCROT,43.70,A*22
-> $CCHPR,6.94,-0.00,0.01*5F
-> $DYSIG,0.00*72
-> $GCHDT,3.05,T*10
-> $GCROT,42.98,A*25
-> $GCHDT,3.10,T*14
-> $GCROT,41.93,A*2D
-> $GPRMC,000023.78,A,5050.704005,N,00044.773522,W,1.1,0.5,230418,4.0,W,A,S*49
-> $GCHDT,3.13,T*17
-> $GCROT,41.14,A*22
-> $CCHPR,7.05,-0.00,0.01*56
-> $GCHDT,3.16,T*12
-> $GCROT,40.28,A*2C
-> $GCHDT,3.19,T*1D
-> $GCROT,39.43,A*2F
-> $CCHPR,7.19,-0.00,0.01*5B
-> $GCHDT,3.22,T*15
-> $GCROT,38.52,A*2E
-> $GPRMC,000023.96,A,5050.704065,N,00044.773521,W,1.1,0.6,230418,4.0,W,A,S*4F
-> $GCHDT,3.25,T*12
-> $GCROT,37.62,A*22
-> $CCHPR,7.19,0.00,0.01*76
-> $GCHDT,3.28,T*1F
-> $GCROT,36.74,A*24
-> $PXTB,,,*32
-> $GCHDT,3.32,T*14
-> $GCROT,35.49,A*29
-> $CCHPR,7.32,-0.00,0.01*52
-> $GCHDT,3.35,T*13
-> $GCROT,34.49,A*28
-> $GPRMC,000024.17,A,5050.704126,N,00044.773520,W,1.1,0.8,230418,4.0,W,A,S*48
-> $GCHDT,3.38,T*1E
-> $GCROT,33.52,A*25
-> $CCHPR,7.32,-0.00,0.01*52
-> $GCHDT,3.40,T*11
-> $GCROT,32.48,A*2F
-> $GCHDT,3.43,T*12
-> $GCROT,31.16,A*27
-> $CCHPR,7.43,-0.00,0.01*54
-> $GCHDT,3.46,T*17
-> $GCROT,30.11,A*21
-> $CCHPR,7.43,-0.00,0.01*54
-> $GPRMC,000024.37,A,5050.704186,N,00044.773519,W,1.1,1.0,230418,4.0,W,A,S*43
-> $GCHDT,3.48,T*19
-> $GCROT,29.11,A*29
-> $GCHDT,3.50,T*10
-> $GCROT,28.16,A*2F
-> $GCHDT,3.53,T*13
-> $GCROT,26.88,A*26
-> $CCHPR,7.53,-0.00,0.01*55
-> $GCHDT,3.55,T*15
-> $GCROT,25.98,A*24
-> $GPRMC,000024.57,A,5050.704247,N,00044.773517,W,1.1,1.2,230418,4.0,W,A,S*47
-> $GCHDT,3.57,T*17
-> $GCROT,25.05,A*20
-> $CCHPR,7.53,-0.00,0.01*55
-> $GCHDT,3.59,T*19
-> $GCROT,24.16,A*23
-> $CCHPR,7.53,-0.00,0.01*55
-> $DYSIG,1.13*71
-> $GCHDT,3.61,T*12
-> $GCROT,23.32,A*22
-> $GCHDT,3.63,T*10
-> $GCROT,22.52,A*25
-> $GPRMC,000024.76,A,5050.704304,N,00044.773515,W,1.1,1.3,230418,4.0,W,A,S*41
-> $GCHDT,3.65,T*16
-> $GCROT,21.42,A*27
-> $CCHPR,7.61,-0.00,0.01*54
-> $GCHDT,3.67,T*14
-> $GCROT,20.36,A*25
-> $CCHPR,7.61,-0.00,0.01*54
-> $GCHDT,3.69,T*1A
-> $GCROT,19.56,A*29
-> $GPRMC,000024.93,A,5050.704370,N,00044.773512,W,1.1,1.5,230418,4.0,W,A,S*48
-> $GCHDT,3.71,T*13
-> $GCROT,18.44,A*2B
-> $CCHPR,7.69,-0.00,0.01*5C
-> $GCHDT,3.72,T*10
-> $GCROT,17.65,A*27
-> $GCHDT,3.72,T*10
-> $GCROT,17.65,A*27
-> $GCHDT,3.74,T*16
-> $GCROT,16.82,A*2F
-> $PXTB,,,*32
-> $CCHPR,7.69,-0.00,0.01*5C
-> $GCHDT,3.75,T*17
-> $GCROT,16.02,A*27
-> $GCHDT,3.76,T*14
-> $GCROT,15.19,A*2E
-> $CCHPR,7.75,0.00,0.01*7C
-> $GPRMC,000025.18,A,5050.704431,N,00044.773510,W,1.1,1.6,230418,4.0,W,A,S*49
-> $GCHDT,3.78,T*1A
-> $GCROT,14.14,A*22
-> $GCHDT,3.79,T*1B
-> $GCROT,13.39,A*2A
-> $CCHPR,7.75,-0.00,0.01*51
-> $GCHDT,3.79,T*1B
-> $GCROT,13.39,A*2A
-> $GCHDT,3.80,T*1D
-> $GCROT,12.45,A*20
-> $GPRMC,000025.35,A,5050.704497,N,00044.773507,W,1.1,1.7,230418,4.0,W,A,S*4D
-> $GCHDT,3.81,T*1C
-> $GCROT,11.70,A*25
-> $CCHPR,7.80,-0.00,0.01*5B
-> $GCHDT,3.81,T*1C
-> $GCROT,11.70,A*25
-> $GCHDT,3.82,T*1F
-> $GCROT,10.98,A*22
-> $GCHDT,3.83,T*1E
-> $GCROT,10.22,A*23
-> $CCHPR,7.80,-0.00,0.01*5B
-> $GCHDT,3.84,T*19
-> $GCROT,9.24,A*1D
-> $GPRMC,000025.56,A,5050.704540,N,00044.773505,W,1.1,1.8,230418,4.0,W,A,S*4E
-> $GCHDT,3.85,T*18
-> $GCROT,8.33,A*1A
-> $CCHPR,7.84,-0.00,0.00*5E
-> $CCHPR,7.84,0.00,0.00*73
-> $DYSIG,1.59*7F
-> $GCHDT,3.86,T*1B
-> $GCROT,6.69,A*1B
-> $CCHPR,7.86,-0.00,0.00*5C
-> $GPRMC,000025.78,A,5050.704611,N,00044.773501,W,1.1,1.9,230418,4.0,W,A,S*40
-> $GCHDT,3.87,T*1A
-> $GCROT,5.01,A*16
-> $CCHPR,7.86,0.00,0.00*71
-> $GCHDT,3.88,T*15
-> $GCROT,3.56,A*12
-> $GPRMC,000025.93,A,5050.704673,N,00044.773498,W,1.1,2.0,230418,4.0,W,A,S*4A
-> $GCHDT,3.88,T*15
-> $GCROT,2.55,A*10
-> $CCHPR,7.88,-0.00,0.00*52
-> $GCHDT,3.88,T*15
-> $GCROT,1.59,A*1F
-> $GCHDT,3.88,T*15
-> $GCROT,0.68,A*1C
-> $PXTB,,,*32
-> $CCHPR,7.88,-0.00,0.00*52
-> $GCHDT,3.88,T*15
-> $GCROT,0.02,A*10
-> $GPRMC,000026.17,A,5050.704730,N,00044.773495,W,1.1,2.1,230418,4.0,W,A,S*4F
-> $GCHDT,3.88,T*15
-> $GCROT,-0.68,A*31
-> $CCHPR,7.88,-0.00,0.00*52
-> $GCHDT,3.88,T*15
-> $GCROT,-1.37,A*3A
-> $GCHDT,3.88,T*15
-> $GCROT,-2.10,A*3C
-> $CCHPR,7.88,-0.00,0.00*52
-> $GCHDT,3.88,T*15
-> $GCROT,-3.03,A*3F
-> $CCHPR,7.88,-0.00,0.00*52
-> $GPRMC,000026.37,A,5050.704788,N,00044.773491,W,1.1,2.1,230418,4.0,W,A,S*4A
-> $GCHDT,3.88,T*15
-> $GCROT,-3.77,A*3C
-> $GCHDT,3.87,T*1A
-> $GCROT,-4.48,A*37
-> $GCHDT,3.87,T*1A
-> $GCROT,-5.17,A*3C
-> $CCHPR,7.87,-0.00,-0.00*70
-> $GCHDT,3.87,T*1A
-> $GCROT,-5.83,A*31
-> $GPRMC,000026.56,A,5050.704850,N,00044.773488,W,1.1,2.2,230418,4.0,W,A,S*4C
-> $GCHDT,3.86,T*1B
-> $GCROT,-6.76,A*38
-> $CCHPR,7.87,-0.00,-0.00*70
-> $GCHDT,3.85,T*18
-> $GCROT,-7.51,A*3C
-> $CCHPR,7.87,-0.00,-0.00*70
-> $DYSIG,1.09*7A
-> $GCHDT,3.85,T*18
-> $GCROT,-8.22,A*37
-> $GCHDT,3.84,T*19
-> $GCROT,-9.12,A*35
-> $GPRMC,000026.78,A,5050.704912,N,00044.773484,W,1.1,2.2,230418,4.0,W,A,S*4B
-> $GCHDT,3.83,T*1E
-> $GCROT,-9.85,A*3B
-> $CCHPR,7.85,-0.00,-0.00*72
-> $GCHDT,3.82,T*1F
-> $GCROT,-10.54,A*0F
-> $GCHDT,3.81,T*1C
-> $GCROT,-11.20,A*0D
-> $CCHPR,7.81,-0.00,-0.00*76
-> $GCHDT,3.80,T*1D
-> $GCROT,-11.84,A*03
-> $GPRMC,000026.96,A,5050.704975,N,00044.773480,W,1.1,2.3,230418,4.0,W,A,S*4F
-> $GCHDT,3.80,T*1D
-> $GCROT,-12.52,A*0B
-> $CCHPR,7.81,0.00,-0.00*5B
-> $GCHDT,3.79,T*1B
-> $GCROT,-13.18,A*04
-> $PXTB,,,*32
-> $GCHDT,3.77,T*15
-> $GCROT,-14.10,A*0B
-> $CCHPR,7.77,0.00,-0.00*52
-> $GCHDT,3.76,T*14
-> $GCROT,-14.77,A*0A
-> $GPRMC,000027.17,A,5050.705038,N,00044.773476,W,1.1,2.3,230418,4.0,W,A,S*4F
-> $GCHDT,3.75,T*17
-> $GCROT,-15.42,A*0D
-> $CCHPR,7.77,0.00,-0.00*52
-> $GCHDT,3.74,T*16
-> $GCROT,-16.04,A*0C
-> $GCHDT,3.72,T*10
-> $GCROT,-16.71,A*0E
-> $CCHPR,7.72,-0.00,-0.00*7A
-> $GCHDT,3.71,T*13
-> $GCROT,-17.56,A*0A
-> $CCHPR,7.72,-0.00,-0.00*7A
-> $GPRMC,000027.37,A,5050.705096,N,00044.773472,W,1.1,2.4,230418,4.0,W,A,S*4A
-> $GCHDT,3.69,T*1A
-> $GCROT,-18.48,A*0A
-> $GCHDT,3.67,T*14
-> $GCROT,-19.34,A*00
-> $CCHPR,7.72,-0.00,-0.00*7A
-> $GCHDT,3.65,T*16
-> $GCROT,-19.96,A*08
-> $GCHDT,3.64,T*17
-> $GCROT,-20.64,A*0F
-> $CCHPR,7.65,-0.00,-0.00*7C
-> $GPRMC,000027.43,A,5050.705154,N,00044.773469,W,1.1,2.4,230418,4.0,W,A,S*4C
-> $GCHDT,3.64,T*17
-> $GCROT,-20.64,A*0F
-> $GCHDT,3.61,T*12
-> $GCROT,-21.49,A*01
-> $CCHPR,7.60,-0.00,-0.00*79
-> $DYSIG,0.00*72
-> $GCHDT,3.57,T*17
-> $GCROT,-23.08,A*06
-> $GPRMC,000027.76,A,5050.705217,N,00044.773464,W,1.1,2.4,230418,4.0,W,A,S*43
-> $CCHPR,7.60,-0.00,-0.01*78
-> $GCHDT,3.53,T*13
-> $GCROT,-24.53,A*0F
-> $CCHPR,7.60,-0.00,-0.01*78
-> $GCHDT,3.50,T*10
-> $GCROT,-25.41,A*0D
-> $GCHDT,3.50,T*10
-> $GCROT,-25.41,A*0D
-> $GPRMC,000027.96,A,5050.705290,N,00044.773459,W,1.1,2.4,230418,4.0,W,A,S*4C
-> $GCHDT,3.46,T*17
-> $GCROT,-26.69,A*04
-> $CCHPR,7.50,0.00,-0.01*56
-> $PXTB,,,*32
-> $GCHDT,3.41,T*10
-> $GCROT,-28.16,A*02
-> $CCHPR,7.41,-0.00,-0.01*7B
-> $CCHPR,7.41,-0.00,-0.01*7B
-> $GPRMC,000028.18,A,5050.705353,N,00044.773455,W,1.1,2.4,230418,4.0,W,A,S*47
-> $GCHDT,3.36,T*10
-> $GCROT,-29.70,A*03
-> $CCHPR,7.41,0.00,-0.01*56
-> $GCHDT,3.31,T*17
-> $GCROT,-31.08,A*05
-> $GCHDT,3.29,T*1E
-> $GCROT,-31.73,A*09
-> $CCHPR,7.31,-0.00,-0.01*7C
-> $GPRMC,000028.39,A,5050.705417,N,00044.773451,W,1.1,2.4,230418,4.0,W,A,S*47
-> $GCHDT,3.26,T*11
-> $GCROT,-32.36,A*0B
-> $GCHDT,3.26,T*11
-> $GCROT,-32.36,A*0B
-> $GCHDT,3.23,T*14
-> $GCROT,-33.26,A*0B
-> $CCHPR,7.31,-0.00,-0.01*7C
-> $GCHDT,3.20,T*17
-> $GCROT,-33.91,A*07
-> $GCHDT,3.18,T*1C
-> $GCROT,-34.62,A*0C
-> $CCHPR,7.20,-0.00,-0.01*7C
-> $GPRMC,000028.43,A,5050.705466,N,00044.773449,W,1.1,2.4,230418,4.0,W,A,S*45
-> $GCHDT,3.18,T*1C
-> $GCROT,-34.62,A*0C
-> $GCHDT,3.15,T*11
-> $GCROT,-35.30,A*0A
-> $GCHDT,3.12,T*16
-> $GCROT,-35.96,A*06
-> $CCHPR,7.20,-0.00,-0.01*7C
-> $DYSIG,3.20*73
-> $GCHDT,3.08,T*1D
-> $GCROT,-36.80,A*02
-> $GCHDT,3.05,T*10
-> $GCROT,-37.47,A*08
-> $CCHPR,7.08,-0.00,-0.01*76
-> $GPRMC,000028.79,A,5050.705544,N,00044.773443,W,1.1,2.4,230418,4.0,W,A,S*47
-> $GCHDT,3.02,T*17
-> $GCROT,-38.11,A*04
-> $GCHDT,2.98,T*15
-> $GCROT,-38.92,A*0F
-> $CCHPR,6.98,0.00,-0.01*53
-> $GCHDT,2.94,T*19
-> $GCROT,-39.70,A*02
-> $GPRMC,000028.96,A,5050.705593,N,00044.773439,W,1.1,2.4,230418,4.0,W,A,S*41
-> $GCHDT,2.91,T*1C
-> $GCROT,-40.32,A*0A
-> $CCHPR,6.98,-0.00,-0.01*7E
-> $GCHDT,2.88,T*14
-> $GCROT,-40.92,A*00
-> $PXTB,,,*32
-> $GCHDT,2.84,T*18
-> $GCROT,-41.67,A*0B
-> $CCHPR,6.84,0.00,-0.01*5E
-> $GCHDT,2.80,T*1C
-> $GCROT,-42.21,A*0A
-> $GPRMC,000029.17,A,5050.705662,N,00044.773435,W,1.1,2.3,230418,4.0,W,A,S*4F
-> $GCHDT,2.77,T*14
-> $GCROT,-42.80,A*01
-> $CCHPR,6.84,0.00,-0.01*5E
-> $GCHDT,2.74,T*17
-> $GCROT,-43.36,A*0D
-> $GCHDT,2.69,T*1B
-> $GCROT,-44.13,A*0D
-> $CCHPR,6.69,-0.00,-0.01*70
-> $GCHDT,2.66,T*14
-> $GCROT,-44.71,A*09
-> $GPRMC,000029.37,A,5050.705726,N,00044.773431,W,1.1,2.3,230418,4.0,W,A,S*48
-> $GCHDT,2.62,T*10
-> $GCROT,-45.26,A*0A
-> $CCHPR,6.69,-0.00,-0.01*70
-> $GCHDT,2.57,T*16
-> $GCROT,-46.06,A*0B
-> $CCHPR,6.69,-0.00,-0.01*70
-> $GCHDT,2.54,T*15
-> $GCROT,-46.63,A*08
-> $GCHDT,2.50,T*11
-> $GCROT,-47.19,A*04
-> $CCHPR,6.54,-0.00,-0.01*7E
-> $GPRMC,000029.57,A,5050.705790,N,00044.773427,W,1.1,2.2,230418,4.0,W,A,S*45
-> $GCHDT,2.46,T*16
-> $GCROT,-47.72,A*09
-> $GCHDT,2.43,T*13
-> $GCROT,-48.24,A*05
-> $CCHPR,6.54,-0.00,-0.01*7E
-> $DYSIG,0.00*72
-> $GCHDT,2.39,T*1E
-> $GCROT,-48.81,A*0A
-> $GCHDT,2.35,T*12
-> $GCROT,-49.36,A*07
-> $GPRMC,000029.76,A,5050.705850,N,00044.773423,W,1.1,2.2,230418,4.0,W,A,S*41
-> $GCHDT,2.31,T*16
-> $GCROT,-49.89,A*03
-> $CCHPR,6.39,-0.00,-0.01*75
-> $GCHDT,2.26,T*10
-> $GCROT,-50.66,A*0A
-> $CCHPR,6.39,0.00,-0.01*58
-> $GCHDT,2.21,T*17
-> $GCROT,-51.41,A*0E
-> $GPRMC,000029.93,A,5050.705920,N,00044.773419,W,1.1,2.1,230418,4.0,W,A,S*46
-> $GCHDT,2.15,T*10
-> $GCROT,-52.12,A*0B
-> $CCHPR,6.21,-0.00,-0.01*7C
-> $GCHDT,2.11,T*14
-> $GCROT,-52.63,A*0D
-> $GCHDT,2.07,T*13
-> $GCROT,-53.19,A*01
-> $PXTB,,,*32
-> $CCHPR,6.21,-0.00,-0.01*7C
-> $GCHDT,2.03,T*17
-> $GCROT,-53.74,A*0A
-> $GCHDT,1.99,T*17
-> $GCROT,-54.26,A*0A
-> $CCHPR,6.03,-0.00,-0.01*7C
-> $GPRMC,000030.18,A,5050.705984,N,00044.773415,W,1.1,2.0,230418,4.0,W,A,S*4E
-> $GCHDT,1.93,T*1D
-> $GCROT,-54.93,A*04
-> $GCHDT,1.93,T*1D
-> $GCROT,-54.93,A*04
-> $GCHDT,1.89,T*16
-> $GCROT,-55.49,A*02
-> $CCHPR,6.03,-0.00,-0.02*7F
-> $GCHDT,1.84,T*1B
-> $GCROT,-56.03,A*0F
-> $GCHDT,1.80,T*1F
-> $GCROT,-56.55,A*0C
-> $CCHPR,5.84,-0.00,-0.02*73
-> $GPRMC,000030.39,A,5050.706049,N,00044.773412,W,1.1,2.0,230418,4.0,W,A,S*41
-> $GCHDT,1.75,T*15
-> $GCROT,-57.05,A*08
-> $GCHDT,1.69,T*18
-> $GCROT,-57.78,A*02
-> $CCHPR,5.84,0.00,-0.02*5E
-> $GCHDT,1.65,T*14
-> $GCROT,-58.31,A*00
-> $GPRMC,000030.54,A,5050.706099,N,00044.773409,W,1.1,1.9,230418,4.0,W,A,S*47
-> $GCHDT,1.59,T*1B
-> $GCROT,-58.99,A*02
-> $CCHPR,5.65,-0.00,-0.02*7C
-> $GCHDT,1.53,T*11
-> $GCROT,-59.64,A*01
-> $GCHDT,1.48,T*1B
-> $GCROT,-60.18,A*00
-> $CCHPR,5.48,0.00,-0.02*5E
-> $DYSIG,1.64*71
-> $GCHDT,1.43,T*10
-> $GCROT,-60.70,A*0E
-> $GPRMC,000030.76,A,5050.706169,N,00044.773406,W,1.1,1.8,230418,4.0,W,A,S*47
-> $GCHDT,1.38,T*1C
-> $GCROT,-61.20,A*0A
-> $CCHPR,5.48,-0.00,-0.02*73
-> $GCHDT,1.32,T*16
-> $GCROT,-61.84,A*04
-> $GCHDT,1.27,T*12
-> $GCROT,-62.38,A*00
-> $CCHPR,5.27,-0.00,-0.02*7A
-> $GCHDT,1.22,T*17
-> $GCROT,-62.90,A*02
-> $GPRMC,000030.96,A,5050.706234,N,00044.773402,W,1.1,1.7,230418,4.0,W,A,S*49
-> $GCHDT,1.17,T*11
-> $GCROT,-63.40,A*0E
-> $CCHPR,5.27,-0.00,-0.02*7A
-> $GCHDT,1.12,T*14
-> $GCROT,-63.88,A*0A
-> $PXTB,,,*32
-> $GCHDT,1.06,T*11
-> $GCROT,-64.59,A*01
-> $CCHPR,5.06,-0.00,-0.02*79
-> $GCHDT,1.01,T*16
-> $GCROT,-65.11,A*0C
-> $CCHPR,5.06,-0.00,-0.02*79
-> $GPRMC,000031.17,A,5050.706299,N,00044.773399,W,1.2,1.6,230418,4.0,W,A,S*41
-> $GCHDT,0.96,T*19
-> $GCROT,-65.60,A*0A
-> $GCHDT,0.90,T*1F
-> $GCROT,-66.09,A*06
-> $GCHDT,0.85,T*1B
-> $GCROT,-66.62,A*0B
-> $CCHPR,4.85,0.00,-0.02*5E
-> $GCHDT,0.78,T*19
-> $GCROT,-67.28,A*04
-> $CCHPR,4.85,-0.00,-0.02*73
-> $GPRMC,000031.37,A,5050.706359,N,00044.773397,W,1.2,1.6,230418,4.0,W,A,S*40
-> $GCHDT,0.71,T*10
-> $GCROT,-67.89,A*0F
-> $GCHDT,0.64,T*14
-> $GCROT,-68.43,A*06
-> $CCHPR,4.85,-0.00,-0.02*73
-> $GCHDT,0.59,T*1A
-> $GCROT,-68.79,A*0F
-> $GCHDT,0.53,T*10
-> $GCROT,-69.19,A*08
-> $CCHPR,4.59,-0.00,-0.02*72
-> $GPRMC,000031.59,A,5050.706419,N,00044.773394,W,1.2,1.5,230418,4.0,W,A,S*4B
-> $GCHDT,0.48,T*1A
-> $GCROT,-69.55,A*00
-> $GCHDT,0.42,T*10
-> $GCROT,-69.87,A*0F
-> $CCHPR,4.59,0.00,-0.02*5F
-> $DYSIG,0.00*72
-> $GCHDT,0.35,T*10
-> $GCROT,-70.23,A*09
-> $GCHDT,0.35,T*10
-> $GCROT,-70.23,A*09
-> $GCHDT,0.30,T*15
-> $GCROT,-70.53,A*0E
-> $CCHPR,4.35,-0.00,-0.02*78
-> $GPRMC,000031.79,A,5050.706500,N,00044.773391,W,1.2,1.3,230418,4.0,W,A,S*43
-> $GCHDT,0.24,T*10
-> $GCROT,-70.78,A*07
-> $GCHDT,0.17,T*10
-> $GCROT,-71.05,A*0C
-> $CCHPR,4.17,-0.00,-0.02*78
-> $GCHDT,0.17,T*10
-> $GCROT,-71.05,A*0C
-> $GCHDT,0.11,T*16
-> $GCROT,-71.20,A*0B
-> $GCHDT,0.11,T*16
-> $GCROT,-71.20,A*0B
-> $GPRMC,000031.95,A,5050.706550,N,00044.773389,W,1.2,1.2,230418,4.0,W,A,S*4C
-> $GCHDT,0.06,T*10
-> $GCROT,-71.31,A*0B
-> $CCHPR,4.17,-0.00,-0.02*78
-> $GCHDT,0.06,T*10
-> $GCROT,-71.31,A*0B
-> $GCHDT,0.00,T*16
-> $GCROT,-71.38,A*02
-> $GCHDT,359.95,T*15
-> $GCROT,-71.45,A*08
-> $PXTB,,,*32
-> $CCHPR,4.17,-0.00,-0.02*78
-> $GCHDT,359.89,T*18
-> $GCROT,-71.52,A*0E
-> $GPRMC,000032.14,A,5050.706626,N,00044.773387,W,1.2,1.1,230418,4.0,W,A,S*49
-> $GCHDT,359.82,T*13
-> $GCROT,-71.62,A*0D
-> $CCHPR,3.89,0.00,-0.02*55
-> $GCHDT,359.76,T*18
-> $GCROT,-71.69,A*06
-> $GCHDT,359.76,T*18
-> $GCROT,-71.69,A*06
-> $GCHDT,359.70,T*1E
-> $GCROT,-71.77,A*09
-> $CCHPR,3.89,-0.00,-0.02*78
-> $GCHDT,359.70,T*1E
-> $GCROT,-71.77,A*09
-> $GCHDT,359.65,T*1A
-> $GCROT,-71.84,A*05
-> $GPRMC,000032.34,A,5050.706692,N,00044.773385,W,1.2,0.9,230418,4.0,W,A,S*4F
-> $GCHDT,359.57,T*1B
-> $GCROT,-71.94,A*04
-> $CCHPR,3.65,-0.00,-0.02*7A
-> $GCHDT,359.50,T*1C
-> $GCROT,-72.05,A*0F
-> $CCHPR,3.44,-0.00,-0.02*79
-> $GCHDT,359.38,T*12
-> $GCROT,-72.21,A*09
-> $GPRMC,000032.56,A,5050.706748,N,00044.773384,W,1.2,0.8,230418,4.0,W,A,S*4D
-> $GCHDT,359.31,T*1B
-> $GCROT,-72.32,A*0B
-> $CCHPR,3.44,-0.00,-0.02*79
-> $GCHDT,359.23,T*18
-> $GCROT,-72.44,A*0A
-> $CCHPR,3.44,-0.00,-0.02*79
-> $DYSIG,1.94*7E
-> $GCHDT,359.16,T*1E
-> $GCROT,-72.55,A*0A
-> $GCHDT,359.10,T*18
-> $GCROT,-72.64,A*08
-> $CCHPR,3.16,0.00,-0.02*53
-> $GPRMC,000032.79,A,5050.706824,N,00044.773382,W,1.2,0.6,230418,4.0,W,A,S*4D
-> $GCHDT,359.04,T*1D
-> $GCROT,-72.72,A*0F
-> $GCHDT,358.99,T*18
-> $GCROT,-72.81,A*03
-> $CCHPR,3.16,0.00,-0.02*53
